,City,Country,Lat,Lng,Max Temp,Humidity,Cloudiness,Wind Speed,Current Description,Date
0,Qaanaaq,GL,77.484,-69.3632,0.43,66,66,7.81,broken clouds,2021-12-04 17:17:44
1,Mataura,NZ,-46.1927,168.8643,58.48,93,58,3.0,broken clouds,2021-12-04 17:17:45
2,Fort Nelson,CA,58.8053,-122.7002,-18.81,76,90,2.3,light snow,2021-12-04 17:17:45
3,Bathsheba,BB,13.2167,-59.5167,86.61,58,40,19.57,scattered clouds,2021-12-04 17:17:45
4,Ribeira Grande,PT,38.5167,-28.7,63.0,94,75,4.61,light intensity drizzle,2021-12-04 17:17:46
5,Necochea,AR,-38.5473,-58.7368,61.03,44,37,13.71,scattered clouds,2021-12-04 17:17:46
6,Arraial Do Cabo,BR,-22.9661,-42.0278,80.56,54,40,10.36,scattered clouds,2021-12-04 17:17:46
7,Punta Arenas,CL,-53.15,-70.9167,55.51,67,75,19.57,broken clouds,2021-12-04 17:16:32
8,Saldanha,ZA,-33.0117,17.9442,62.69,89,100,6.15,light rain,2021-12-04 17:17:47
9,Kapaa,US,22.0752,-159.319,66.18,82,20,1.01,light rain,2021-12-04 17:17:47
10,Vestmanna,FO,62.1564,-7.1664,32.92,69,82,3.44,broken clouds,2021-12-04 17:17:48
11,Bethel,US,41.3712,-73.414,47.71,59,90,1.01,overcast clouds,2021-12-04 17:17:48
12,Kavaratti,IN,10.5669,72.642,81.81,75,11,5.64,few clouds,2021-12-04 17:17:48
13,Cape Town,ZA,-33.9258,18.4232,68.11,69,20,5.01,light rain,2021-12-04 17:17:49
14,Waw,SS,7.7029,27.9953,90.28,26,79,5.66,broken clouds,2021-12-04 17:17:49
15,Itacare,BR,-14.2775,-38.9967,84.09,69,42,7.9,scattered clouds,2021-12-04 17:17:49
16,Kiama,AU,-34.6833,150.8667,63.0,84,100,1.01,overcast clouds,2021-12-04 17:17:50
17,Verkhnyaya Inta,RU,65.9811,60.3094,-17.25,93,11,7.34,few clouds,2021-12-04 17:17:50
18,Albany,US,42.6001,-73.9662,39.81,66,73,1.99,broken clouds,2021-12-04 17:17:50
19,Ponta Delgada,PT,37.7333,-25.6667,68.5,63,20,6.91,few clouds,2021-12-04 17:17:51
20,Darnah,LY,32.767,22.6367,59.97,64,63,19.37,broken clouds,2021-12-04 17:17:51
21,Hilo,US,19.7297,-155.09,67.73,90,90,5.75,light rain,2021-12-04 17:17:52
22,Dzaoudzi,YT,-12.7887,45.2699,82.29,78,0,4.61,clear sky,2021-12-04 17:17:52
23,Hobart,AU,-42.8794,147.3294,44.46,80,82,8.05,broken clouds,2021-12-04 17:17:53
24,Mar Del Plata,AR,-38.0023,-57.5575,57.87,79,4,11.99,clear sky,2021-12-04 17:17:53
25,Varde,DK,55.6211,8.4807,39.54,98,90,8.05,mist,2021-12-04 17:15:09
26,Yellowknife,CA,62.456,-114.3525,-27.71,83,1,5.75,clear sky,2021-12-04 17:15:43
27,Iqaluit,CA,63.7506,-68.5145,2.93,77,75,27.0,light snow,2021-12-04 17:17:54
28,Fortuna,US,40.5982,-124.1573,49.32,69,21,0.65,few clouds,2021-12-04 17:17:54
29,Barrow,US,71.2906,-156.7887,10.42,72,90,13.8,overcast clouds,2021-12-04 17:17:55
30,Hambantota,LK,6.1241,81.1185,78.87,84,52,5.91,broken clouds,2021-12-04 17:15:13
31,Vaini,TO,-21.2,-175.2,78.96,94,40,8.05,moderate rain,2021-12-04 17:17:55
32,Ilulissat,GL,69.2167,-51.1,35.62,64,75,27.63,broken clouds,2021-12-04 17:17:55
33,Henties Bay,NA,-22.116,14.2845,64.85,78,0,15.61,clear sky,2021-12-04 17:17:56
34,Amazar,RU,53.858,120.875,0.7,99,92,1.34,overcast clouds,2021-12-04 17:17:56
35,East London,ZA,-33.0153,27.9116,67.14,100,90,9.22,light rain,2021-12-04 17:17:56
36,Puerto Ayora,EC,-0.7393,-90.3518,73.36,82,89,8.34,overcast clouds,2021-12-04 17:17:57
37,Karpathos,GR,35.507,27.2132,66.16,72,40,17.27,scattered clouds,2021-12-04 17:17:57
38,Thompson,CA,55.7435,-97.8558,-9.24,77,90,5.75,light snow,2021-12-04 17:17:57
39,Busselton,AU,-33.65,115.3333,61.09,74,0,12.5,clear sky,2021-12-04 17:17:58
40,Norman Wells,CA,65.282,-126.8329,-39.96,67,20,2.3,few clouds,2021-12-04 17:17:58
41,Atuona,PF,-9.8,-139.0333,78.28,75,34,20.11,scattered clouds,2021-12-04 17:17:58
42,Rikitea,PF,-23.1203,-134.9692,75.42,73,56,12.91,broken clouds,2021-12-04 17:17:59
43,Tasiilaq,GL,65.6145,-37.6368,30.36,74,100,16.04,overcast clouds,2021-12-04 17:17:59
44,Castro,BR,-24.7911,-50.0119,79.86,37,3,3.15,clear sky,2021-12-04 17:17:59
45,San Cristobal,VE,7.7669,-72.225,78.98,41,80,8.75,broken clouds,2021-12-04 17:18:00
46,Klaksvik,FO,62.2266,-6.589,34.72,57,99,16.55,overcast clouds,2021-12-04 17:18:00
47,Ushuaia,AR,-54.8,-68.3,62.26,27,75,13.8,broken clouds,2021-12-04 17:19:00
48,Grand Gaube,MU,-20.0064,57.6608,79.38,70,2,5.99,clear sky,2021-12-04 17:19:01
49,Pevek,RU,69.7008,170.3133,-11.92,95,100,9.89,overcast clouds,2021-12-04 17:19:01
50,Cascais,PT,38.6979,-9.4215,60.51,80,75,3.0,broken clouds,2021-12-04 17:19:01
51,Maragogi,BR,-9.0122,-35.2225,83.44,70,72,11.01,broken clouds,2021-12-04 17:19:02
52,Guerrero Negro,MX,27.9769,-114.0611,66.65,68,96,8.48,overcast clouds,2021-12-04 17:19:02
53,Caravelas,BR,-17.7125,-39.2481,81.12,67,25,9.04,moderate rain,2021-12-04 17:19:03
54,Nouadhibou,MR,20.931,-17.0347,69.78,68,0,14.97,clear sky,2021-12-04 17:19:03
55,Leningradskiy,RU,69.3833,178.4167,-18.06,98,98,4.97,overcast clouds,2021-12-04 17:19:03
56,Esperance,AU,-33.8667,121.9,57.4,82,3,11.25,clear sky,2021-12-04 17:19:04
57,Avenal,US,36.0041,-120.129,46.45,70,0,1.32,clear sky,2021-12-04 17:19:04
58,Martinsburg,US,39.4562,-77.9639,55.74,51,1,0.0,clear sky,2021-12-04 17:19:04
59,Port Elizabeth,ZA,-33.918,25.5701,64.09,88,90,13.8,overcast clouds,2021-12-04 17:17:06
60,Bangkal,PH,6.0667,121.0667,77.18,88,38,8.88,scattered clouds,2021-12-04 17:19:05
61,Cuamba,MZ,-14.8031,36.5372,83.32,43,21,4.92,few clouds,2021-12-04 17:19:05
62,Wattegama,LK,6.7989,81.4808,74.43,93,17,1.74,few clouds,2021-12-04 17:16:40
63,Jamestown,US,42.097,-79.2353,42.39,69,40,11.99,scattered clouds,2021-12-04 17:17:42
64,Butaritari,KI,3.0707,172.7902,82.4,77,32,16.62,scattered clouds,2021-12-04 17:19:06
65,Saint-Philippe,RE,-21.3585,55.7679,78.39,82,36,10.4,scattered clouds,2021-12-04 17:19:06
66,Longyearbyen,SJ,78.2186,15.6401,21.04,73,75,25.32,light snow,2021-12-04 17:19:06
67,Lodja,CD,-3.4833,23.4333,71.65,96,96,0.45,moderate rain,2021-12-04 17:19:07
68,Bluff,NZ,-46.6,168.3333,58.8,96,54,7.02,broken clouds,2021-12-04 17:19:07
69,Zhigansk,RU,66.7697,123.3711,-14.24,97,100,18.45,light snow,2021-12-04 17:19:07
70,Lavrentiya,RU,65.5833,-171.0,0.52,91,64,7.65,broken clouds,2021-12-04 17:19:08
71,Kavieng,PG,-2.5744,150.7967,82.49,80,49,14.09,scattered clouds,2021-12-04 17:19:08
72,Grindavik,IS,63.8424,-22.4338,32.47,86,75,4.61,broken clouds,2021-12-04 17:19:08
73,Arroyos Y Esteros,PY,-25.0667,-57.1,96.55,17,34,1.45,scattered clouds,2021-12-04 17:19:09
74,Georgetown,MY,5.4112,100.3354,80.89,84,20,4.61,few clouds,2021-12-04 17:19:09
75,Ubinskoye,RU,55.3068,79.6802,25.54,94,100,10.51,overcast clouds,2021-12-04 17:19:10
76,Port Alfred,ZA,-33.5906,26.891,68.18,93,100,20.92,overcast clouds,2021-12-04 17:16:37
77,Faanui,PF,-16.4833,-151.75,80.4,73,76,17.92,light rain,2021-12-04 17:19:10
78,San Francisco,US,37.7749,-122.4194,56.19,81,90,1.01,overcast clouds,2021-12-04 17:16:13
79,Port Augusta,AU,-32.5,137.7667,60.94,61,92,9.04,overcast clouds,2021-12-04 17:19:11
80,San Rafael,AR,-34.6177,-68.3301,65.89,59,98,7.56,overcast clouds,2021-12-04 17:19:11
81,Avarua,CK,-21.2078,-159.775,75.25,94,20,2.3,few clouds,2021-12-04 17:19:11
82,Obsharovka,RU,53.125,48.8531,34.25,94,100,5.79,overcast clouds,2021-12-04 17:19:12
83,Saint-Pierre,RE,-21.3393,55.4781,78.48,84,20,3.44,few clouds,2021-12-04 17:19:12
84,Kishapu,TZ,-3.6167,33.8667,81.34,38,99,11.7,overcast clouds,2021-12-04 17:19:12
85,Kayerkan,RU,69.3497,87.7602,-25.2,97,100,4.99,overcast clouds,2021-12-04 17:19:13
86,Orange Walk,BZ,17.8333,-88.8333,82.26,70,58,5.21,broken clouds,2021-12-04 17:19:13
87,Mahebourg,MU,-20.4081,57.7,79.25,83,20,6.91,few clouds,2021-12-04 17:19:14
88,Provideniya,RU,64.3833,-173.3,13.1,77,17,10.49,few clouds,2021-12-04 17:19:14
89,Vangaindrano,MG,-23.35,47.6,76.55,87,0,9.26,clear sky,2021-12-04 17:19:14
90,Itarema,BR,-2.9248,-39.9167,88.03,57,58,17.05,broken clouds,2021-12-04 17:19:15
91,Ponta Do Sol,PT,32.6667,-17.1,67.12,58,89,9.82,overcast clouds,2021-12-04 17:20:15
92,Sao Filipe,CV,14.8961,-24.4956,77.09,69,95,9.37,overcast clouds,2021-12-04 17:20:15
93,Hami,CN,42.8,93.45,27.05,56,71,0.87,broken clouds,2021-12-04 17:16:56
94,Pontes E Lacerda,BR,-15.2261,-59.3353,86.41,68,100,2.3,overcast clouds,2021-12-04 17:20:16
95,Namibe,AO,-15.1961,12.1522,72.41,67,46,11.03,scattered clouds,2021-12-04 17:20:16
96,Itapirapua,BR,-15.8233,-50.6133,89.08,54,63,4.03,broken clouds,2021-12-04 17:20:17
97,Hamilton,US,39.1834,-84.5333,53.24,59,1,1.99,clear sky,2021-12-04 17:19:36
98,Kagalnitskaya,RU,46.8806,40.1466,49.87,73,100,7.43,overcast clouds,2021-12-04 17:20:17
99,Shumikha,RU,55.2261,63.2961,32.79,88,51,18.14,broken clouds,2021-12-04 17:20:17
100,Ahipara,NZ,-35.1667,173.1667,65.34,91,100,8.52,overcast clouds,2021-12-04 17:20:18
101,Kodoli,IN,16.8833,74.2,68.63,96,6,5.23,clear sky,2021-12-04 17:20:18
102,Ancud,CL,-41.8697,-73.8203,65.73,58,0,8.43,clear sky,2021-12-04 17:20:18
103,Trofors,NO,65.5333,13.4063,24.15,91,14,7.16,few clouds,2021-12-04 17:20:19
104,Chokurdakh,RU,70.6333,147.9167,-39.71,100,87,3.53,overcast clouds,2021-12-04 17:20:19
105,Eyemouth,GB,55.8713,-2.0901,40.84,96,94,26.98,moderate rain,2021-12-04 17:20:20
106,Chuy,UY,-33.6971,-53.4616,72.73,62,100,13.04,overcast clouds,2021-12-04 17:20:20
107,Bairiki,KI,1.3292,172.9752,80.6,83,40,12.66,scattered clouds,2021-12-04 17:20:20
108,Riyadh,SA,24.6877,46.7219,62.74,28,0,5.55,clear sky,2021-12-04 17:17:02
109,Itoman,JP,26.1247,127.6694,64.42,52,75,8.05,broken clouds,2021-12-04 17:20:21
110,Honiara,SB,-9.4333,159.95,77.68,88,89,2.73,overcast clouds,2021-12-04 17:20:21
111,Severo-Kurilsk,RU,50.6789,156.125,32.9,80,91,32.41,light snow,2021-12-04 17:20:21
112,Salamiyah,SY,35.0113,37.0532,57.67,41,100,8.5,overcast clouds,2021-12-04 17:20:22
113,Bredasdorp,ZA,-34.5322,20.0403,66.27,70,99,18.45,light rain,2021-12-04 17:20:22
114,Upernavik,GL,72.7868,-56.1549,10.24,72,99,7.25,overcast clouds,2021-12-04 17:20:22
115,Dunedin,NZ,-45.8742,170.5036,54.81,66,100,3.0,overcast clouds,2021-12-04 17:20:23
116,Tucson,US,32.2217,-110.9265,72.12,36,1,1.01,clear sky,2021-12-04 17:18:54
117,Wewak,PG,-3.5534,143.6268,79.36,88,100,9.24,heavy intensity rain,2021-12-04 17:20:23
118,Coquimbo,CL,-29.9533,-71.3436,64.13,72,20,16.11,few clouds,2021-12-04 17:20:23
119,Soyo,AO,-6.1349,12.3689,73.45,84,96,4.59,overcast clouds,2021-12-04 17:20:24
120,Lebu,CL,-37.6167,-73.65,59.95,63,0,21.14,clear sky,2021-12-04 17:20:24
121,Santana Do Mundau,BR,-9.1681,-36.2222,85.98,41,83,16.06,light rain,2021-12-04 17:20:25
122,Acurenam,GQ,1.0322,10.6488,73.74,86,99,2.1,light rain,2021-12-04 17:18:08
123,Bengkulu,ID,-3.8004,102.2655,75.47,93,100,18.28,light rain,2021-12-04 17:20:25
124,San Quintin,MX,30.4833,-115.95,62.85,74,93,7.96,overcast clouds,2021-12-04 17:20:25
125,West Wendover,US,40.7391,-114.0733,33.01,80,1,0.0,clear sky,2021-12-04 17:20:26
126,Stornoway,GB,58.2093,-6.3865,39.16,85,40,5.99,scattered clouds,2021-12-04 17:20:26
127,Truro,GB,50.2653,-5.0544,43.56,69,91,24.83,overcast clouds,2021-12-04 17:17:30
128,Jiuquan,CN,39.7432,98.5174,30.18,25,26,0.72,scattered clouds,2021-12-04 17:20:27
129,Yulara,AU,-25.2406,130.9889,78.64,31,40,14.97,scattered clouds,2021-12-04 17:20:27
130,Hazorasp,UZ,41.3194,61.0742,35.44,77,99,6.26,overcast clouds,2021-12-04 17:20:27
131,Mmathubudukwane,BW,-24.6,26.4333,80.4,49,74,7.16,broken clouds,2021-12-04 17:20:28
132,Tuatapere,NZ,-46.1333,167.6833,58.82,99,91,4.81,overcast clouds,2021-12-04 17:20:28
133,Dwarka,IN,22.2394,68.9678,76.87,57,0,10.94,clear sky,2021-12-04 17:20:28
134,Stralsund,DE,54.3091,13.0818,39.06,90,100,8.48,overcast clouds,2021-12-04 17:20:29
135,Wanxian,CN,30.8039,108.3897,57.34,65,96,0.22,overcast clouds,2021-12-04 17:20:29
136,Carnarvon,AU,-24.8667,113.6333,73.47,83,0,8.05,clear sky,2021-12-04 17:21:29
137,Pemba,MZ,-12.974,40.5178,83.1,78,20,8.05,few clouds,2021-12-04 17:21:30
138,Baisha,CN,26.5222,110.9311,48.16,60,37,1.77,scattered clouds,2021-12-04 17:21:30
139,Ostrovnoy,RU,68.0531,39.5131,6.26,95,84,4.85,broken clouds,2021-12-04 17:21:30
140,Erzin,TR,36.9559,36.2,55.92,50,100,7.61,overcast clouds,2021-12-04 17:21:31
141,Tuktoyaktuk,CA,69.4541,-133.0374,-23.8,76,1,5.75,clear sky,2021-12-04 17:21:31
142,Cabo San Lucas,MX,22.8909,-109.9124,83.52,66,20,3.0,few clouds,2021-12-04 17:18:06
143,Lethem,GY,3.3803,-59.7968,92.89,42,37,9.06,scattered clouds,2021-12-04 17:21:32
144,Dingle,PH,10.9995,122.6711,71.71,91,89,8.63,overcast clouds,2021-12-04 17:21:32
145,Kodiak,US,57.79,-152.4072,22.51,74,20,5.75,few clouds,2021-12-04 17:21:32
146,Kaitangata,NZ,-46.2817,169.8464,55.22,94,91,4.63,overcast clouds,2021-12-04 17:21:33
147,Karratha,AU,-20.7377,116.8463,87.76,38,21,15.39,few clouds,2021-12-04 17:21:33
148,Sechura,PE,-5.5569,-80.8222,76.66,57,97,9.95,overcast clouds,2021-12-04 17:21:33
149,Garden City,US,42.3256,-83.331,44.6,37,75,5.01,broken clouds,2021-12-04 17:21:34
150,Touros,BR,-5.1989,-35.4608,88.7,63,73,15.68,broken clouds,2021-12-04 17:21:34
151,Agadez,NE,19.75,10.25,72.43,16,27,9.82,scattered clouds,2021-12-04 17:21:34
152,Scarborough,GB,54.2797,-0.4044,40.57,89,70,1.01,broken clouds,2021-12-04 17:19:39
153,Myski,RU,53.709,87.8014,24.01,92,100,8.32,overcast clouds,2021-12-04 17:21:35
154,Meulaboh,ID,4.1363,96.1285,76.87,86,16,3.71,few clouds,2021-12-04 17:21:35
155,Columbus,US,39.9612,-82.9988,49.62,68,40,1.01,scattered clouds,2021-12-04 17:16:53
156,Tiksi,RU,71.6872,128.8694,-21.05,97,100,3.8,overcast clouds,2021-12-04 17:21:31
157,Kassala,SD,15.451,36.4,86.76,24,0,7.72,clear sky,2021-12-04 17:21:36
158,Tahe,CN,52.3333,124.7333,-0.8,98,55,2.04,broken clouds,2021-12-04 17:21:36
159,Manokwari,ID,-0.8667,134.0833,78.48,85,99,3.27,overcast clouds,2021-12-04 17:20:28
160,New Norfolk,AU,-42.7826,147.0587,44.1,64,67,2.62,broken clouds,2021-12-04 17:21:31
161,Diplo,PK,24.4667,69.584,69.67,35,0,4.0,clear sky,2021-12-04 17:21:37
162,Talnakh,RU,69.4865,88.3972,-21.93,98,100,3.47,overcast clouds,2021-12-04 17:21:37
163,Skibbereen,IE,51.55,-9.2667,40.8,65,27,22.93,scattered clouds,2021-12-04 17:21:37
164,Hermanus,ZA,-34.4187,19.2345,67.89,72,100,19.66,light rain,2021-12-04 17:20:20
165,Saint Anthony,US,45.0205,-93.218,34.75,51,20,1.99,few clouds,2021-12-04 17:21:38
166,Vostok,RU,46.4856,135.8833,-12.37,98,47,5.57,scattered clouds,2021-12-04 17:21:38
167,Victoria,HK,22.2855,114.1577,66.38,71,64,1.01,broken clouds,2021-12-04 17:20:47
168,Pontal,BR,-21.0225,-48.0372,91.67,40,16,3.96,few clouds,2021-12-04 17:21:39
169,Montepuez,MZ,-13.1256,38.9997,80.06,49,36,13.18,scattered clouds,2021-12-04 17:21:39
170,Dikson,RU,73.5069,80.5464,-23.15,100,77,4.52,broken clouds,2021-12-04 17:21:39
171,San Isidro,PE,-12.1167,-77.05,69.39,80,90,3.0,overcast clouds,2021-12-04 17:21:40
172,Antalaha,MG,-14.9003,50.2788,76.39,87,8,6.49,light rain,2021-12-04 17:21:40
173,Clyde River,CA,70.4692,-68.5914,12.43,85,100,27.63,light snow,2021-12-04 17:21:40
174,Whitehorse,CA,60.7161,-135.0538,-9.9,75,75,3.0,light snow,2021-12-04 17:20:16
175,Pitimbu,BR,-7.4706,-34.8086,88.39,69,30,12.66,scattered clouds,2021-12-04 17:21:41
176,Oktyabrskiy,RU,54.4815,53.471,36.09,97,100,16.69,overcast clouds,2021-12-04 17:21:41
177,Borger,NL,52.9233,6.7931,41.81,95,100,7.87,overcast clouds,2021-12-04 17:21:42
178,Ust-Kuyga,RU,70.0167,135.6,-39.21,97,85,8.14,overcast clouds,2021-12-04 17:21:42
179,Kloulklubed,PW,7.0419,134.2556,77.5,77,100,10.67,overcast clouds,2021-12-04 17:21:43
180,Sambava,MG,-14.2667,50.1667,77.9,85,15,7.92,light rain,2021-12-04 17:21:43
181,Taoudenni,ML,22.6783,-3.9836,71.28,17,72,14.43,broken clouds,2021-12-04 17:21:43
182,Lufilufi,WS,-13.8745,-171.5986,73.18,76,100,13.87,light rain,2021-12-04 17:22:44
183,Katsuura,JP,35.1333,140.3,48.31,59,1,16.82,clear sky,2021-12-04 17:22:44
184,Agirish,RU,61.9247,63.0231,2.07,95,100,11.95,snow,2021-12-04 17:22:44
185,Blagoyevo,RU,63.3667,47.9167,3.25,78,100,12.75,overcast clouds,2021-12-04 17:22:45
186,Akonolinga,CM,3.7667,12.25,78.67,62,77,1.07,broken clouds,2021-12-04 17:22:45
187,Arinos,BR,-15.9169,-46.1056,85.82,54,85,3.78,light rain,2021-12-04 17:22:45
188,Nikolskoye,RU,59.7035,30.7861,18.01,95,100,4.99,overcast clouds,2021-12-04 17:19:15
189,Rincon,US,32.296,-81.2354,73.58,60,40,6.91,scattered clouds,2021-12-04 17:22:46
190,Srandakan,ID,-7.9386,110.2506,64.72,88,100,3.94,overcast clouds,2021-12-04 17:22:46
191,Puerto Santander,CO,8.3636,-72.4063,89.01,59,85,5.1,overcast clouds,2021-12-04 17:22:47
192,Blackwater,AU,-23.5833,148.8833,74.66,74,5,5.5,clear sky,2021-12-04 17:22:47
193,Hithadhoo,MV,-0.6,73.0833,82.2,77,82,13.42,broken clouds,2021-12-04 17:22:47
194,Taltal,CL,-25.4,-70.4833,68.86,62,12,7.34,few clouds,2021-12-04 17:22:48
195,Ngama,TD,11.7833,17.1667,86.27,19,0,9.66,clear sky,2021-12-04 17:22:48
196,Bambous Virieux,MU,-20.3428,57.7575,79.21,83,20,6.91,few clouds,2021-12-04 17:22:48
197,Harlingen,US,26.1906,-97.6961,82.2,84,75,16.11,broken clouds,2021-12-04 17:19:36
198,Lompoc,US,34.6391,-120.4579,56.12,86,90,3.44,overcast clouds,2021-12-04 17:19:30
199,Torbay,CA,47.6666,-52.7314,33.76,48,40,25.32,scattered clouds,2021-12-04 17:19:18
200,Villazon,BO,-22.0866,-65.5942,59.81,50,95,8.95,overcast clouds,2021-12-04 17:22:49
201,Eureka,US,40.8021,-124.1637,49.57,96,49,0.54,scattered clouds,2021-12-04 17:20:24
202,Kota Kinabalu,MY,5.9749,116.0724,76.98,94,20,3.44,few clouds,2021-12-04 17:22:50
203,Mirnyy,RU,62.5353,113.9611,11.17,89,97,10.8,overcast clouds,2021-12-04 17:18:14
204,Saint-Joseph,RE,-21.3667,55.6167,77.38,83,42,7.87,scattered clouds,2021-12-04 17:22:50
205,Kieta,PG,-6.2167,155.6333,79.07,84,90,3.67,overcast clouds,2021-12-04 17:22:50
206,Margate,GB,51.3813,1.3862,43.03,74,32,3.0,scattered clouds,2021-12-04 17:22:51
207,San Patricio,US,28.017,-97.5169,81.01,65,7,12.17,clear sky,2021-12-04 17:22:51
208,Zalesovo,RU,53.9939,84.7431,18.64,96,100,7.34,overcast clouds,2021-12-04 17:22:51
209,Coahuayana,MX,18.7333,-103.6833,85.48,54,8,3.31,clear sky,2021-12-04 17:22:52
210,Geraldton,AU,-28.7667,114.6,66.61,72,0,8.05,clear sky,2021-12-04 17:22:52
211,Isangel,VU,-19.55,169.2667,77.68,85,96,9.95,overcast clouds,2021-12-04 17:22:52
212,Aripuana,BR,-9.1667,-60.6333,74.86,94,100,2.75,overcast clouds,2021-12-04 17:22:53
213,Qasigiannguit,GL,68.8193,-51.1922,35.85,55,100,33.22,overcast clouds,2021-12-04 17:22:53
214,Xining,CN,36.6167,101.7667,27.1,30,0,2.84,clear sky,2021-12-04 17:22:02
215,Alice Springs,AU,-23.7,133.8833,76.55,29,65,8.05,broken clouds,2021-12-04 17:22:14
216,Bilma,NE,18.6853,12.9164,73.6,13,18,12.24,few clouds,2021-12-04 17:22:54
217,Deputatskiy,RU,69.3,139.9,-39.5,95,20,2.35,few clouds,2021-12-04 17:22:54
218,Cayenne,GF,4.9333,-52.3333,77.04,91,75,4.0,moderate rain,2021-12-04 17:22:55
219,Berlevag,NO,70.8578,29.0864,17.91,81,22,19.64,few clouds,2021-12-04 17:22:55
220,Brae,GB,60.3964,-1.353,37.31,67,100,24.14,overcast clouds,2021-12-04 17:22:55
221,Yumen,CN,40.2833,97.2,30.58,30,82,8.39,broken clouds,2021-12-04 17:18:25
222,Hasaki,JP,35.7333,140.8333,39.6,52,1,22.39,clear sky,2021-12-04 17:22:56
223,Bardiyah,LY,31.7561,25.0865,64.81,45,75,16.53,broken clouds,2021-12-04 17:22:56
224,Vao,NC,-22.6667,167.4833,76.44,85,99,18.01,overcast clouds,2021-12-04 17:22:57
225,Komsomolskiy,UZ,40.4272,71.7189,41.72,65,100,0.0,haze,2021-12-04 17:22:57
226,Belyy Yar,RU,53.6039,91.3903,25.86,63,0,8.95,clear sky,2021-12-04 17:22:57
227,Flin Flon,CA,54.7682,-101.865,4.84,72,75,8.05,light snow,2021-12-04 17:23:58
228,Sakakah,SA,29.9697,40.2064,65.77,36,99,10.16,overcast clouds,2021-12-04 17:23:58
229,Cuajinicuilapa,MX,16.4667,-98.4167,89.01,41,8,2.42,clear sky,2021-12-04 17:22:22
230,Russell,US,32.3502,-85.1999,72.0,84,1,0.0,clear sky,2021-12-04 17:23:28
231,Nassau,US,40.7507,-73.5829,48.87,54,1,1.01,clear sky,2021-12-04 17:23:58
232,Kaeo,NZ,-35.1,173.7833,67.32,96,100,10.42,overcast clouds,2021-12-04 17:23:59
233,Serebryansk,KZ,49.6925,83.2892,11.75,96,50,3.83,scattered clouds,2021-12-04 17:23:59
234,Zyryanka,RU,65.75,150.85,-36.0,99,72,6.85,broken clouds,2021-12-04 17:24:00
235,Sabang,ID,5.8933,95.3214,81.16,76,71,11.36,broken clouds,2021-12-04 17:24:00
236,Hagi,JP,34.4,131.4167,41.86,71,71,3.36,broken clouds,2021-12-04 17:24:00
237,Tenenkou,ML,14.4572,-4.9169,93.13,9,91,7.34,overcast clouds,2021-12-04 17:24:01
238,Tanout,NE,14.9709,8.8879,80.22,12,96,10.56,overcast clouds,2021-12-04 17:24:01
239,San Policarpo,PH,12.1791,125.5072,77.67,82,85,18.5,overcast clouds,2021-12-04 17:24:01
240,Sitka,US,57.0531,-135.33,21.09,86,1,3.44,clear sky,2021-12-04 17:24:02
241,Elizabeth City,US,36.2946,-76.2511,68.02,68,1,7.0,clear sky,2021-12-04 17:24:02
242,Sorland,NO,67.667,12.6934,29.88,59,6,18.14,clear sky,2021-12-04 17:24:02
243,Nioro,GM,13.35,-15.75,98.33,16,88,5.91,overcast clouds,2021-12-04 17:24:03
244,Carauari,BR,-4.8828,-66.8958,90.75,55,65,2.42,broken clouds,2021-12-04 17:24:03
245,Lagoa,PT,39.05,-27.9833,63.97,84,37,13.31,scattered clouds,2021-12-04 17:24:04
246,Ahuimanu,US,21.4447,-157.8378,66.45,75,75,0.0,broken clouds,2021-12-04 17:24:04
247,Nanortalik,GL,60.1432,-45.2371,37.31,76,100,24.76,overcast clouds,2021-12-04 17:24:04
248,Calama,CL,-22.4667,-68.9333,77.49,10,40,19.57,scattered clouds,2021-12-04 17:24:05
249,Mecca,SA,21.4267,39.8261,76.41,63,0,5.19,clear sky,2021-12-04 17:24:05
250,Sukumo,JP,32.9333,132.7333,41.05,76,4,6.24,clear sky,2021-12-04 17:24:05
251,Muli,MV,2.9167,73.5667,82.94,77,55,13.27,broken clouds,2021-12-04 17:24:06
252,Paoua,CF,7.2427,16.4406,83.73,26,26,2.59,scattered clouds,2021-12-04 17:24:06
253,Basco,PH,20.4487,121.9702,73.4,63,100,25.19,overcast clouds,2021-12-04 17:24:07
254,Manono,CD,-7.3,27.4167,80.74,51,77,2.33,broken clouds,2021-12-04 17:24:07
255,Egvekinot,RU,66.3167,-179.1667,-26.03,96,24,5.59,few clouds,2021-12-04 17:24:07
256,Richards Bay,ZA,-28.783,32.0377,73.27,97,100,14.2,heavy intensity rain,2021-12-04 17:19:41
257,Taganak,PH,6.0833,118.3,80.74,81,100,9.82,overcast clouds,2021-12-04 17:24:08
258,Bernalillo,US,35.05,-106.6673,64.27,39,20,3.44,few clouds,2021-12-04 17:24:08
259,Aklavik,CA,68.2191,-135.0107,-21.17,68,1,5.75,clear sky,2021-12-04 17:24:09
260,Cherskiy,RU,68.75,161.3,-20.45,99,100,7.78,overcast clouds,2021-12-04 17:24:09
261,Yarada,IN,17.65,83.2667,79.12,69,75,9.22,broken clouds,2021-12-04 17:24:09
262,Narsaq,GL,60.9167,-46.05,37.62,67,100,16.67,light rain,2021-12-04 17:24:10
263,Sarkand,KZ,45.41,79.9186,40.55,73,100,1.83,overcast clouds,2021-12-04 17:24:10
264,Juneau,US,58.3019,-134.4197,24.85,93,75,0.0,broken clouds,2021-12-04 17:24:10
265,Devils Lake,US,48.1128,-98.8651,24.78,77,1,1.99,clear sky,2021-12-04 17:24:11
266,Bondo,CD,3.8146,23.6866,70.5,97,99,1.63,light rain,2021-12-04 17:24:11
267,Nantucket,US,41.2835,-70.0995,43.25,60,41,7.63,scattered clouds,2021-12-04 17:21:58
268,Tomatlan,MX,19.9333,-105.25,84.81,60,20,1.45,few clouds,2021-12-04 17:24:12
269,Airai,TL,-8.9266,125.4092,62.19,93,100,1.21,overcast clouds,2021-12-04 17:24:12
270,Ambulu,ID,-8.345,113.6058,75.72,85,100,1.52,overcast clouds,2021-12-04 17:24:12
271,Vanavara,RU,60.34,102.2797,20.59,86,100,16.02,light snow,2021-12-04 17:25:13
272,Khatanga,RU,71.9667,102.5,-21.15,98,100,8.05,overcast clouds,2021-12-04 17:25:13
273,Masterton,NZ,-40.9597,175.6575,64.78,71,100,6.13,overcast clouds,2021-12-04 17:25:13
274,Bandarbeyla,SO,9.4942,50.8122,78.13,66,0,22.26,clear sky,2021-12-04 17:25:14
275,Marawi,PH,7.9986,124.2928,66.65,97,92,3.87,overcast clouds,2021-12-04 17:25:14
276,Isiolo,KE,0.3546,37.5822,67.48,85,51,5.23,light rain,2021-12-04 17:25:14
277,Saint George,US,37.1041,-113.5841,60.35,45,1,3.44,clear sky,2021-12-04 17:22:38
278,Belaya Gora,RU,68.5333,146.4167,-39.46,100,63,0.38,broken clouds,2021-12-04 17:25:15
279,Sisimiut,GL,66.9395,-53.6735,32.79,80,100,16.2,overcast clouds,2021-12-04 17:24:02
280,Neya,RU,58.2972,43.8681,21.78,93,100,9.51,light snow,2021-12-04 17:25:15
281,Sorrento,IT,40.626,14.3744,55.65,53,40,1.01,scattered clouds,2021-12-04 17:25:16
282,Nichinan,JP,31.6,131.3667,41.76,65,9,5.93,clear sky,2021-12-04 17:25:16
283,Bagdarin,RU,54.4333,113.6,15.03,79,100,5.68,overcast clouds,2021-12-04 17:25:16
284,Husavik,IS,66.0449,-17.3389,12.11,77,87,10.18,overcast clouds,2021-12-04 17:25:17
285,Aksu,CN,41.1231,80.2644,29.44,41,100,1.99,overcast clouds,2021-12-04 17:24:35
286,Panjab,AF,34.388,67.0233,31.41,48,64,2.95,broken clouds,2021-12-04 17:25:17
287,Frontera,MX,26.9333,-101.45,81.32,46,40,0.0,scattered clouds,2021-12-04 17:25:17
288,Griffith,US,41.5284,-87.4237,42.73,47,40,3.0,scattered clouds,2021-12-04 17:25:18
289,Constitucion,CL,-35.3333,-72.4167,69.35,53,3,14.03,clear sky,2021-12-04 17:25:18
290,Inuvik,CA,68.3499,-133.7218,-21.14,73,1,5.75,clear sky,2021-12-04 17:25:18
291,Kavarna,BG,43.4333,28.3333,38.35,99,100,13.4,overcast clouds,2021-12-04 17:25:19
292,Emba,KZ,48.8264,58.1442,28.26,89,96,5.35,overcast clouds,2021-12-04 17:25:19
293,Rudnogorsk,RU,57.2639,103.7519,22.73,88,100,12.82,overcast clouds,2021-12-04 17:25:20
294,Hervey Bay,AU,-25.2986,152.8535,71.04,77,82,5.14,moderate rain,2021-12-04 17:25:20
295,Tres Arroyos,AR,-38.3739,-60.2798,64.24,36,100,3.74,moderate rain,2021-12-04 17:25:20
296,Ishigaki,JP,24.3448,124.1572,68.9,63,100,18.75,overcast clouds,2021-12-04 17:25:21
297,Ndola,ZM,-12.9587,28.6366,75.27,26,2,5.5,clear sky,2021-12-04 17:25:21
298,Nampa,US,43.5407,-116.5635,47.41,100,90,0.0,fog,2021-12-04 17:23:11
299,Olafsvik,IS,64.8945,-23.7142,34.61,75,71,4.65,broken clouds,2021-12-04 17:25:06
300,Ambilobe,MG,-13.2,49.05,80.83,66,52,6.17,broken clouds,2021-12-04 17:25:22
301,Gidole,ET,5.65,37.3667,67.08,42,86,2.71,overcast clouds,2021-12-04 17:25:22
302,Omsukchan,RU,62.5333,155.8,-32.8,94,17,3.94,few clouds,2021-12-04 17:25:22
303,Labuan,MY,5.2767,115.2417,77.36,100,40,0.0,scattered clouds,2021-12-04 17:25:23
304,Vanimo,PG,-2.6741,141.3028,78.28,91,100,7.76,moderate rain,2021-12-04 17:25:23
305,Port Lincoln,AU,-34.7333,135.8667,57.38,80,61,11.48,broken clouds,2021-12-04 17:25:23
306,Namatanai,PG,-3.6667,152.4333,80.42,84,58,7.16,light rain,2021-12-04 17:25:24
307,Sakete,BJ,6.7362,2.6587,85.14,57,81,7.85,broken clouds,2021-12-04 17:25:24
308,Cozumel,MX,20.5083,-86.9458,82.94,60,40,5.01,scattered clouds,2021-12-04 17:25:24
309,Saint-Augustin,CA,51.226,-58.6502,20.55,56,26,23.35,scattered clouds,2021-12-04 17:25:25
310,Tobol,KZ,52.6844,62.5794,32.13,91,99,12.97,overcast clouds,2021-12-04 17:25:25
311,Miri,MY,4.4148,114.0089,77.14,94,40,2.3,scattered clouds,2021-12-04 17:25:25
312,Mount Gambier,AU,-37.8333,140.7667,42.71,93,42,0.0,mist,2021-12-04 17:25:25
313,Pierre,US,44.3683,-100.351,37.06,57,90,3.0,overcast clouds,2021-12-04 17:25:26
314,Maloy,NO,61.9353,5.1136,37.72,76,94,5.01,light rain,2021-12-04 17:25:26
315,Somerset,US,40.5668,-74.5496,50.68,57,1,4.0,clear sky,2021-12-04 17:25:26
316,Fulton,US,33.7668,-84.4499,68.38,75,1,1.01,clear sky,2021-12-04 17:25:27
317,Jega,NG,12.2175,4.3792,86.32,14,78,7.72,broken clouds,2021-12-04 17:25:27
318,Druzhba,UA,52.0428,33.9453,24.75,95,23,5.93,few clouds,2021-12-04 17:26:27
319,Vila Velha,BR,-20.3297,-40.2925,78.75,73,40,11.5,scattered clouds,2021-12-04 17:26:28
320,Port Hardy,CA,50.6996,-127.4199,37.76,93,75,4.61,broken clouds,2021-12-04 17:26:28
321,Teshie,GH,5.5836,-0.1072,86.56,74,0,9.22,clear sky,2021-12-04 17:26:29
322,Adrar,MR,20.5022,-10.0711,78.96,10,64,12.66,broken clouds,2021-12-04 17:26:29
323,Keningau,MY,5.3378,116.1602,73.85,99,100,1.19,overcast clouds,2021-12-04 17:26:29
324,Gornopravdinsk,RU,60.05,69.9,20.1,96,100,6.24,snow,2021-12-04 17:26:30
325,Loveland,US,40.3978,-105.075,65.88,48,1,1.01,clear sky,2021-12-04 17:26:30
326,Krosno,PL,49.6887,21.7706,34.47,67,99,14.74,overcast clouds,2021-12-04 17:26:30
327,Toowoomba,AU,-27.55,151.9667,61.54,94,15,1.01,few clouds,2021-12-04 17:26:31
328,Bonfim,BR,3.0833,-59.95,92.34,43,33,4.54,scattered clouds,2021-12-04 17:26:31
329,Abnub,EG,27.2696,31.1511,68.22,29,99,2.21,overcast clouds,2021-12-04 17:26:31
330,Northam,GB,51.0333,-4.2167,45.39,67,84,24.85,broken clouds,2021-12-04 17:26:32
331,Abancay,PE,-13.6339,-72.8814,61.84,60,100,6.17,overcast clouds,2021-12-04 17:26:32
332,Ranong,TH,9.9658,98.6348,71.62,80,9,5.17,clear sky,2021-12-04 17:26:32
333,Inhambane,MZ,-23.865,35.3833,78.69,86,51,17.65,broken clouds,2021-12-04 17:25:10
334,Nizhnevartovsk,RU,60.9344,76.5531,14.02,85,90,4.47,light snow,2021-12-04 17:26:33
335,College,US,64.8569,-147.8028,-32.01,62,1,4.61,clear sky,2021-12-04 17:26:33
336,Marsa Matruh,EG,31.3525,27.2453,62.8,59,0,8.05,clear sky,2021-12-04 17:26:34
337,Tazmalt,DZ,36.3868,4.3989,51.89,64,0,5.06,clear sky,2021-12-04 17:26:34
338,Savonlinna,FI,61.8699,28.88,6.85,72,0,12.66,clear sky,2021-12-04 17:26:34
339,Dedza,MW,-14.3779,34.3332,70.09,52,26,5.35,scattered clouds,2021-12-04 17:26:35
340,Ucluelet,CA,48.9329,-125.5528,37.09,91,100,2.68,overcast clouds,2021-12-04 17:22:16
341,Shingu,JP,33.7333,135.9833,40.5,75,3,7.23,clear sky,2021-12-04 17:26:35
342,Alakurtti,RU,66.9672,30.3491,-2.6,99,14,3.74,few clouds,2021-12-04 17:26:35
343,Codrington,AU,-38.2667,141.9667,45.12,84,99,3.8,overcast clouds,2021-12-04 17:26:36
344,Matamoros,MX,25.5333,-103.25,68.11,56,40,0.0,scattered clouds,2021-12-04 17:26:36
345,Chum Phae,TH,16.5443,102.0992,57.78,56,18,2.17,few clouds,2021-12-04 17:26:36
346,Buala,SB,-8.145,159.5921,79.43,81,86,2.48,overcast clouds,2021-12-04 17:25:16
347,La Rioja,ES,42.25,-2.5,45.05,90,96,5.61,overcast clouds,2021-12-04 17:26:37
348,Petauke,ZM,-14.2426,31.3253,83.23,25,71,4.03,broken clouds,2021-12-04 17:26:37
349,Padang,ID,-0.9492,100.3543,77.49,88,100,1.48,light rain,2021-12-04 17:26:38
350,Pemangkat,ID,1.1667,108.9667,77.79,88,98,5.57,overcast clouds,2021-12-04 17:26:38
351,Puerto Del Rosario,ES,28.5004,-13.8627,67.75,49,0,14.97,clear sky,2021-12-04 17:26:38
352,Bonavista,CA,48.6499,-53.1147,34.12,54,97,33.08,overcast clouds,2021-12-04 17:26:39
353,Kyra,RU,49.5776,111.9753,20.08,80,100,5.57,overcast clouds,2021-12-04 17:26:39
354,Qaqortoq,GL,60.7167,-46.0333,37.9,73,100,16.24,overcast clouds,2021-12-04 17:26:39
355,Kastamonu,TR,41.5,33.6667,44.82,71,100,4.94,overcast clouds,2021-12-04 17:26:40
356,Viedma,AR,-40.8135,-62.9967,72.97,21,100,6.78,overcast clouds,2021-12-04 17:26:40
357,Svetlogorsk,BY,52.6333,29.7333,27.93,83,85,9.13,overcast clouds,2021-12-04 17:26:40
358,Pacific Grove,US,36.6177,-121.9166,53.71,82,90,1.99,overcast clouds,2021-12-04 17:26:41
359,Calvinia,ZA,-31.4707,19.776,62.02,59,56,12.35,broken clouds,2021-12-04 17:26:41
360,Bandrele,YT,-12.9067,45.1914,82.15,78,0,4.61,clear sky,2021-12-04 17:26:41
361,Balkanabat,TM,39.5108,54.3671,46.65,69,0,8.59,clear sky,2021-12-04 17:26:14
362,Neuquen,AR,-38.9516,-68.0591,73.29,49,75,3.44,broken clouds,2021-12-04 17:26:42
363,Saskylakh,RU,71.9167,114.0833,-20.45,98,100,5.48,overcast clouds,2021-12-04 17:26:42
364,Port Blair,IN,11.6667,92.75,79.68,80,59,10.51,broken clouds,2021-12-04 17:24:24
365,Kununurra,AU,-15.7667,128.7333,84.18,79,94,0.0,overcast clouds,2021-12-04 17:27:43
366,Gengenbach,DE,48.4,8.0167,50.14,87,90,7.0,light rain,2021-12-04 17:27:43
367,Portoferraio,IT,42.8115,10.3146,60.1,82,40,8.05,scattered clouds,2021-12-04 17:27:43
368,Mildura,AU,-34.2,142.15,58.96,51,0,6.91,clear sky,2021-12-04 17:23:27
369,Souillac,MU,-20.5167,57.5167,79.36,83,20,6.91,few clouds,2021-12-04 17:27:44
370,Tacuarembo,UY,-31.7333,-55.9833,84.29,34,91,10.65,overcast clouds,2021-12-04 17:27:44
371,Kropotkin,RU,45.4375,40.5756,48.92,54,100,7.34,overcast clouds,2021-12-04 17:27:33
372,Santa Pola,ES,38.1917,-0.5658,65.16,51,0,3.0,clear sky,2021-12-04 17:27:45
373,Mehamn,NO,71.0357,27.8492,18.43,75,11,19.33,few clouds,2021-12-04 17:23:27
374,Ixtapa,MX,20.7,-105.2,79.83,65,40,3.44,scattered clouds,2021-12-04 17:27:45
375,Oksfjord,NO,70.2396,22.3479,18.52,85,4,9.73,clear sky,2021-12-04 17:27:46
376,Ayan,RU,56.45,138.1667,-0.2,75,26,4.61,scattered clouds,2021-12-04 17:27:46
377,Axim,GH,4.8699,-2.2405,83.48,72,49,9.8,scattered clouds,2021-12-04 17:23:31
378,Tripoli,LY,32.8752,13.1875,61.18,54,100,20.15,overcast clouds,2021-12-04 17:24:39
379,Karasjok,NO,69.4719,25.5112,-0.29,100,100,4.56,overcast clouds,2021-12-04 17:27:47
380,Ugoofaaru,MV,5.6667,73.0,82.76,74,56,10.38,broken clouds,2021-12-04 17:27:47
381,Solnechnyy,RU,50.7214,136.6319,-5.44,93,31,6.33,scattered clouds,2021-12-04 17:27:47
382,Todos Santos,MX,23.45,-110.2167,83.01,66,97,9.06,overcast clouds,2021-12-04 17:27:48
383,Acari,PE,-15.4311,-74.6158,81.99,50,85,10.76,overcast clouds,2021-12-04 17:27:48
384,Gueugnon,FR,46.6036,4.0629,43.99,87,91,9.62,overcast clouds,2021-12-04 17:27:48
385,San Felipe,VE,10.3399,-68.7425,87.24,52,92,6.26,overcast clouds,2021-12-04 17:27:49
386,Cocobeach,GA,1.0002,9.5823,84.13,80,99,9.71,light rain,2021-12-04 17:27:49
387,Beringovskiy,RU,63.05,179.3167,8.92,81,74,7.65,broken clouds,2021-12-04 17:27:49
388,Dudinka,RU,69.4058,86.1778,-34.02,99,98,3.71,overcast clouds,2021-12-04 17:27:50
389,Calamar,CO,10.2511,-74.9146,89.55,49,92,4.79,overcast clouds,2021-12-04 17:27:50
390,Huari,PE,-9.3333,-77.2333,53.01,65,100,5.53,light rain,2021-12-04 17:27:50
391,Dera Bugti,PK,29.0307,69.151,61.5,28,0,5.55,clear sky,2021-12-04 17:27:51
392,La Ronge,CA,55.1001,-105.2842,-0.15,71,40,5.75,scattered clouds,2021-12-04 17:27:51
393,El Alto,PE,-4.2714,-81.2147,76.66,64,93,15.86,overcast clouds,2021-12-04 17:23:08
394,Youghal,IE,51.95,-7.8506,41.09,92,47,18.97,scattered clouds,2021-12-04 17:27:52
395,Linqiong,CN,30.4159,103.4609,49.82,64,100,2.64,overcast clouds,2021-12-04 17:27:52
396,Ilebo,CD,-4.3167,20.5833,73.53,94,67,2.51,broken clouds,2021-12-04 17:27:52
397,Lulea,SE,65.5842,22.1547,8.67,92,75,6.91,light snow,2021-12-04 17:27:53
398,Fuyang,CN,32.9,115.8167,45.01,37,6,4.29,clear sky,2021-12-04 17:27:53
399,San Ramon,US,37.7799,-121.978,54.64,87,90,1.99,overcast clouds,2021-12-04 17:27:53
400,Igarka,RU,67.4667,86.5833,-38.74,100,44,4.07,scattered clouds,2021-12-04 17:27:54
401,Port Hedland,AU,-20.3167,118.5667,86.05,51,17,11.5,few clouds,2021-12-04 17:27:54
402,Amudat,UG,1.95,34.95,75.76,51,91,18.01,overcast clouds,2021-12-04 17:27:54
403,Pisco,PE,-13.7,-76.2167,71.02,83,0,10.36,clear sky,2021-12-04 17:26:59
404,Barranca,PE,-10.75,-77.7667,70.84,73,91,9.86,overcast clouds,2021-12-04 17:27:55
405,Labytnangi,RU,66.6572,66.4183,-26.61,91,7,3.67,clear sky,2021-12-04 17:27:55
406,Carbonear,CA,47.7332,-53.2148,34.34,51,95,26.06,overcast clouds,2021-12-04 17:27:55
407,Progreso,MX,21.2833,-89.6667,82.11,58,43,9.1,scattered clouds,2021-12-04 17:27:56
408,Oistins,BB,13.0667,-59.5333,86.09,58,40,19.57,scattered clouds,2021-12-04 17:27:56
409,Ust-Nera,RU,64.5667,143.2,-40.79,99,70,4.21,broken clouds,2021-12-04 17:27:57
410,Gat,IL,31.61,34.7642,67.41,50,100,2.08,overcast clouds,2021-12-04 17:23:24
411,Tura,IN,25.5198,90.2201,65.19,81,99,2.26,overcast clouds,2021-12-04 17:27:57
412,Maxixe,MZ,-23.8597,35.3472,78.53,85,52,16.82,broken clouds,2021-12-04 17:27:58
413,Pangnirtung,CA,66.1451,-65.7125,17.6,79,75,2.3,broken clouds,2021-12-04 17:26:13
414,Fairbanks,US,64.8378,-147.7164,-24.02,67,1,0.0,clear sky,2021-12-04 17:26:25
415,Middelburg,ZA,-25.7751,29.4648,71.08,67,61,14.27,light rain,2021-12-04 17:28:58
416,Half Moon Bay,US,37.4636,-122.4286,55.62,83,90,1.01,mist,2021-12-04 17:28:06
417,Waipawa,NZ,-41.4122,175.5153,63.23,76,98,8.25,overcast clouds,2021-12-04 17:28:59
418,Caconda,AO,-13.7333,15.0667,65.55,88,98,5.03,moderate rain,2021-12-04 17:28:59
419,Bastrop,US,32.7562,-91.8724,76.42,78,49,1.99,scattered clouds,2021-12-04 17:28:59
420,Muros,ES,42.7762,-9.0603,55.24,80,74,11.03,broken clouds,2021-12-04 17:29:00
421,Road Town,VG,18.4167,-64.6167,86.04,70,40,9.22,scattered clouds,2021-12-04 17:29:00
422,Dabakala,CI,8.3667,-4.4333,94.89,27,36,3.09,scattered clouds,2021-12-04 17:29:00
423,Rizhao,CN,35.4275,119.4553,44.24,58,0,4.05,clear sky,2021-12-04 17:29:01
424,Ormara,PK,25.2088,64.6357,75.69,61,2,8.68,clear sky,2021-12-04 17:29:01
425,Rio Grande,BR,-32.035,-52.0986,77.11,73,100,16.17,overcast clouds,2021-12-04 17:29:01
426,Kamyshin,RU,50.0983,45.416,39.52,92,100,4.14,overcast clouds,2021-12-04 17:29:02
427,Phalaborwa,ZA,-23.943,31.1411,87.08,34,3,5.88,clear sky,2021-12-04 17:29:02
428,Los Llanos De Aridane,ES,28.6585,-17.9182,64.15,61,20,15.01,few clouds,2021-12-04 17:29:02
429,Jupiter,US,26.9342,-80.0942,79.09,76,1,7.0,clear sky,2021-12-04 17:29:03
430,Mount Isa,AU,-20.7333,139.5,82.17,47,44,5.75,scattered clouds,2021-12-04 17:29:03
431,Kruisfontein,ZA,-34.0033,24.7314,61.88,94,100,16.62,light rain,2021-12-04 17:29:03
432,Lesnoy,RU,57.6198,63.0784,35.71,84,100,15.7,overcast clouds,2021-12-04 17:29:04
433,Laguna,US,38.421,-121.4238,63.1,98,90,4.61,fog,2021-12-04 17:29:04
434,Jalu,LY,29.0331,21.5482,59.32,32,0,17.58,clear sky,2021-12-04 17:29:04
435,Kindu,CD,-2.95,25.95,75.6,87,91,1.14,light rain,2021-12-04 17:29:05
436,Yatou,CN,37.15,122.3833,40.91,67,0,4.52,clear sky,2021-12-04 17:29:05
437,Jadu,LY,31.953,12.0261,47.44,60,20,5.68,few clouds,2021-12-04 17:29:05
438,Jian,CN,27.1172,114.9793,50.99,54,96,2.26,overcast clouds,2021-12-04 17:29:06
439,Pokosnoye,RU,55.5258,101.0536,26.17,92,99,13.18,light snow,2021-12-04 17:29:06
440,Tarauaca,BR,-8.1614,-70.7656,86.94,70,99,2.15,overcast clouds,2021-12-04 17:29:07
441,Garowe,SO,8.4054,48.4845,76.46,46,4,16.24,clear sky,2021-12-04 17:29:07
442,Nha Trang,VN,12.25,109.1833,71.6,78,92,8.79,overcast clouds,2021-12-04 17:29:07
443,Karangampel,ID,-6.4622,108.4519,77.27,90,100,9.84,overcast clouds,2021-12-04 17:29:08
444,Kahului,US,20.8947,-156.47,65.46,91,40,5.75,scattered clouds,2021-12-04 17:29:08
445,Lasa,IT,46.6166,10.7002,34.68,88,97,1.32,overcast clouds,2021-12-04 17:29:08
446,Villa Rica,US,33.7321,-84.9191,67.68,77,73,4.68,broken clouds,2021-12-04 17:29:09
447,Cap Malheureux,MU,-19.9842,57.6142,79.47,70,1,5.01,clear sky,2021-12-04 17:29:09
448,Cap-Aux-Meules,CA,47.3821,-61.8597,30.25,64,75,23.02,light shower snow,2021-12-04 17:29:09
449,Popondetta,PG,-8.7537,148.2534,73.89,98,99,3.11,overcast clouds,2021-12-04 17:29:10
450,Ust-Maya,RU,60.4167,134.5333,-15.38,88,100,5.84,overcast clouds,2021-12-04 17:29:10
451,Tinyahuarco,PE,-10.75,-76.3,46.87,75,100,7.87,overcast clouds,2021-12-04 17:29:10
452,Jiwani,PK,25.05,61.7417,76.89,67,0,11.14,clear sky,2021-12-04 17:29:10
453,Leiyang,CN,26.4024,112.8591,50.32,65,14,0.78,few clouds,2021-12-04 17:29:11
454,Baiquan,CN,47.5833,126.0833,9.32,87,10,12.75,clear sky,2021-12-04 17:29:11
455,Damara,CF,4.9608,18.7035,84.83,48,53,1.68,broken clouds,2021-12-04 17:29:11
456,Imbituba,BR,-28.24,-48.6703,76.89,66,54,15.39,broken clouds,2021-12-04 17:29:12
457,Vardo,NO,70.3705,31.1107,21.7,72,9,16.69,clear sky,2021-12-04 17:29:12
458,Yalta,UA,44.5,34.1667,51.62,88,100,4.21,overcast clouds,2021-12-04 17:29:12
459,Lorengau,PG,-2.0226,147.2712,82.36,82,99,18.57,overcast clouds,2021-12-04 17:29:13
460,Batemans Bay,AU,-35.7167,150.1833,61.11,72,100,8.79,overcast clouds,2021-12-04 17:29:13
461,Dondo,MZ,-19.6094,34.7431,81.01,63,0,12.39,clear sky,2021-12-04 17:29:13
462,Camacha,PT,33.0833,-16.3333,63.54,59,40,14.97,scattered clouds,2021-12-04 17:30:14
463,Tarakan,ID,3.3,117.6333,79.41,84,99,1.54,light rain,2021-12-04 17:30:14
464,Petropavlovsk-Kamchatskiy,RU,53.0452,158.6483,28.99,100,75,0.0,light shower snow,2021-12-04 17:30:14
465,Sun City West,US,33.662,-112.3413,73.11,32,1,1.99,clear sky,2021-12-04 17:30:15
466,Tigil,RU,57.8,158.6667,24.31,97,100,1.9,light snow,2021-12-04 17:30:15
467,Karak,JO,31.1667,35.75,57.92,31,100,2.37,overcast clouds,2021-12-04 17:30:15
468,Linkoping,SE,58.4109,15.6216,22.39,96,0,3.44,clear sky,2021-12-04 17:30:16
469,Emerald,AU,-23.5333,148.1667,75.34,70,6,0.0,clear sky,2021-12-04 17:29:23
470,Beni,CD,0.5,29.4667,66.45,89,92,3.09,light rain,2021-12-04 17:30:16
471,Charters Towers,AU,-20.1,146.2667,74.61,79,0,4.25,clear sky,2021-12-04 17:30:17
472,Beipiao,CN,41.7919,120.7792,26.76,91,6,3.91,clear sky,2021-12-04 17:30:17
473,Teya,RU,60.3778,92.6267,10.26,87,99,9.24,overcast clouds,2021-12-04 17:30:17
474,Strezhevoy,RU,60.7333,77.5889,13.98,96,100,5.28,overcast clouds,2021-12-04 17:30:18
475,Natal,BR,-5.795,-35.2094,88.45,62,75,17.27,broken clouds,2021-12-04 17:26:15
476,Kishi,NG,9.0833,3.85,83.25,18,95,4.63,overcast clouds,2021-12-04 17:30:18
477,Fjerritslev,DK,57.0813,9.2664,34.27,88,100,23.33,overcast clouds,2021-12-04 17:30:19
478,Sendafa,ET,9.15,39.0333,50.29,67,1,3.49,clear sky,2021-12-04 17:30:19
479,Comodoro Rivadavia,AR,-45.8667,-67.5,73.26,20,0,13.8,clear sky,2021-12-04 17:30:01
480,Zachary,US,30.6485,-91.1565,77.74,91,2,3.27,clear sky,2021-12-04 17:30:19
481,Cusuna,HN,15.85,-85.2333,73.54,96,100,1.39,overcast clouds,2021-12-04 17:30:20
482,Cidreira,BR,-30.1811,-50.2056,73.18,73,68,17.83,broken clouds,2021-12-04 17:26:36
483,Soe,ID,-9.8607,124.284,68.11,84,100,2.62,overcast clouds,2021-12-04 17:30:20
484,Bilibino,RU,68.0546,166.4372,-39.28,100,98,4.56,overcast clouds,2021-12-04 17:30:21
485,Manasa,IN,24.4837,75.2687,65.88,58,4,5.55,clear sky,2021-12-04 17:30:21
486,Dickinson,US,29.4608,-95.0513,79.03,86,75,5.01,broken clouds,2021-12-04 17:30:21
487,Kupang,ID,-10.1667,123.5833,80.47,79,100,4.97,overcast clouds,2021-12-04 17:30:22
488,Kipushi,CD,-11.7667,27.2333,70.61,45,7,3.49,clear sky,2021-12-04 17:30:22
489,Tobermory,CA,45.2501,-81.6665,32.31,62,100,32.84,overcast clouds,2021-12-04 17:30:22
490,Babu,CN,24.4167,111.5167,49.21,60,12,2.26,few clouds,2021-12-04 17:30:23
491,Peace River,CA,56.2501,-117.286,-3.69,71,90,16.11,light snow,2021-12-04 17:27:25
492,Sao Geraldo Do Araguaia,BR,-6.4006,-48.555,81.09,80,100,1.88,moderate rain,2021-12-04 17:30:23
493,Rapid Valley,US,44.0625,-103.1463,31.05,75,90,11.5,overcast clouds,2021-12-04 17:30:24
494,Sukhumi,GE,43.0033,41.0153,53.98,52,75,6.13,broken clouds,2021-12-04 17:30:24
495,Mankato,US,44.1636,-93.9994,34.93,34,100,5.59,overcast clouds,2021-12-04 17:30:24
496,Krivosheino,RU,57.3431,83.9261,19.71,91,99,9.8,overcast clouds,2021-12-04 17:30:25
497,Kendari,ID,-3.945,122.4989,76.06,92,100,2.86,overcast clouds,2021-12-04 17:30:25
498,Avera,US,33.194,-82.5271,71.11,49,91,8.28,overcast clouds,2021-12-04 17:30:25
499,Hofn,IS,64.2539,-15.2082,32.13,56,0,12.21,clear sky,2021-12-04 17:30:26
500,Odlabari,IN,26.8333,88.6167,66.29,74,65,4.52,broken clouds,2021-12-04 17:30:26
501,Kirkenaer,NO,60.4564,12.0582,20.44,97,96,3.15,overcast clouds,2021-12-04 17:30:26
502,Sibu,MY,2.3,111.8167,77.31,94,40,1.99,scattered clouds,2021-12-04 17:30:27
503,Sinnamary,GF,5.3833,-52.95,76.78,90,100,3.85,overcast clouds,2021-12-04 17:30:27
504,Hurghada,EG,27.2574,33.8129,71.64,64,0,0.0,clear sky,2021-12-04 17:30:27
505,Chimore,BO,-16.9833,-65.1333,86.27,75,97,1.14,overcast clouds,2021-12-04 17:30:28
506,Ertil,RU,51.8406,40.8056,28.94,86,100,5.55,overcast clouds,2021-12-04 17:30:28
507,Tupik,RU,54.4253,119.9327,8.78,90,100,2.17,overcast clouds,2021-12-04 17:31:28
508,Salym,RU,60.0625,71.4789,19.24,96,100,5.97,snow,2021-12-04 17:31:29
509,Batagay-Alyta,RU,67.8006,130.4114,-28.71,100,100,2.3,overcast clouds,2021-12-04 17:31:29
510,Nicoya,CR,10.1483,-85.452,87.35,56,21,8.88,few clouds,2021-12-04 17:31:29
511,Tabou,CI,4.423,-7.3528,81.43,77,32,8.16,scattered clouds,2021-12-04 17:31:30
512,Kalisz,PL,51.7611,18.091,29.71,80,96,7.99,overcast clouds,2021-12-04 17:31:30
513,Panguna,PG,-6.3164,155.4848,68.74,96,89,1.81,overcast clouds,2021-12-04 17:31:31
514,Matara,LK,5.9485,80.5353,76.73,89,50,4.45,scattered clouds,2021-12-04 17:31:31
515,Sarangani,PH,5.4033,125.4636,82.33,73,69,8.84,broken clouds,2021-12-04 17:31:31
516,Marang,MY,5.2056,103.2059,75.11,82,90,4.36,overcast clouds,2021-12-04 17:31:32
517,Iranshahr,IR,27.2025,60.6848,64.74,32,0,4.61,clear sky,2021-12-04 17:31:32
518,Sola,VU,-13.8833,167.55,79.2,79,100,12.8,overcast clouds,2021-12-04 17:31:32
519,Nhulunbuy,AU,-12.2333,136.7667,83.01,83,100,4.61,overcast clouds,2021-12-04 17:31:33
520,Kapoeta,SS,4.7717,33.5903,86.77,34,81,9.91,broken clouds,2021-12-04 17:31:33
521,Kurtamysh,RU,54.9103,64.4319,32.45,89,70,16.53,broken clouds,2021-12-04 17:31:33
522,Port Macquarie,AU,-31.4333,152.9167,66.16,94,90,18.41,overcast clouds,2021-12-04 17:31:34
523,Vila Franca Do Campo,PT,37.7167,-25.4333,66.61,77,79,1.83,broken clouds,2021-12-04 17:31:34
524,Lannion,FR,48.75,-3.4167,46.38,76,90,24.16,overcast clouds,2021-12-04 17:31:34
525,Maryborough,AU,-25.5333,152.7,68.22,92,83,4.52,moderate rain,2021-12-04 17:31:35
526,Aquiraz,BR,-3.9014,-38.3911,87.89,64,26,13.76,scattered clouds,2021-12-04 17:31:35
527,Irbil,IQ,36.1926,44.0106,51.62,62,100,0.0,overcast clouds,2021-12-04 17:29:31
528,Panzhihua,CN,26.5851,101.7128,53.47,89,85,1.1,overcast clouds,2021-12-04 17:31:36
529,Pa Sang,TH,18.5262,98.9394,66.49,86,36,0.45,scattered clouds,2021-12-04 17:31:36
530,Celestun,MX,20.8667,-90.4,81.34,59,42,7.58,scattered clouds,2021-12-04 17:31:37
531,Lata,PT,40.1629,-8.3327,53.06,91,42,3.94,scattered clouds,2021-12-04 17:31:37
532,Pagudpud,PH,18.5616,120.7868,71.24,82,96,17.72,overcast clouds,2021-12-04 17:31:37
533,Aykhal,RU,66.0,111.5,-12.59,97,100,9.75,overcast clouds,2021-12-04 17:31:38
534,Erice,IT,38.037,12.5865,50.47,88,40,13.8,scattered clouds,2021-12-04 17:31:38
535,Te Anau,NZ,-45.4167,167.7167,57.31,95,99,3.78,overcast clouds,2021-12-04 17:31:39
536,Kostrzyn,PL,52.3985,17.2281,34.99,81,98,5.99,overcast clouds,2021-12-04 17:31:39
537,Sao Gabriel Da Cachoeira,BR,-0.1303,-67.0892,80.4,83,75,2.3,broken clouds,2021-12-04 17:31:39
538,Beyneu,KZ,45.3167,55.2,34.2,75,62,10.58,broken clouds,2021-12-04 17:31:40
539,Matagami,CA,49.7502,-77.6328,1.51,78,20,2.3,few clouds,2021-12-04 17:31:40
540,Honningsvag,NO,70.9821,25.9704,23.76,81,12,29.08,few clouds,2021-12-04 17:31:40
541,Simitli,BG,41.8833,23.1167,44.78,89,36,1.9,scattered clouds,2021-12-04 17:31:41
542,Porto Novo,BJ,6.4965,2.6036,85.82,74,81,8.61,broken clouds,2021-12-04 17:31:41
543,Krasnoselkup,RU,65.7,82.4667,-15.38,96,100,4.94,overcast clouds,2021-12-04 17:31:41
544,Amantea,IT,39.1332,16.0746,57.15,68,70,15.41,broken clouds,2021-12-04 17:31:42
545,Visnes,NO,59.3556,5.2242,39.22,69,0,19.57,clear sky,2021-12-04 17:31:42
546,Turukhansk,RU,65.8167,87.9833,-36.63,100,96,4.76,overcast clouds,2021-12-04 17:30:53
547,Caraquet,CA,47.7941,-64.9386,23.54,66,13,15.41,few clouds,2021-12-04 17:31:43
548,Mega,ET,4.05,38.3,61.0,78,28,11.12,scattered clouds,2021-12-04 17:31:43
549,Biak,ID,-0.9131,122.8766,76.8,84,100,2.44,overcast clouds,2021-12-04 17:31:43
550,Tagusao,PH,9.1924,117.8141,78.03,82,100,4.07,overcast clouds,2021-12-04 17:31:44
551,Wuning,CN,29.2589,120.2311,44.55,72,100,3.29,overcast clouds,2021-12-04 17:31:44
552,Vestmannaeyjar,IS,63.4427,-20.2734,32.99,69,0,8.05,clear sky,2021-12-04 17:31:44
553,Mitha Tiwana,PK,32.2486,72.1108,62.82,28,3,1.54,clear sky,2021-12-04 17:31:45
554,Derbent,RU,42.0678,48.2899,47.28,74,2,11.68,clear sky,2021-12-04 17:31:45
555,Carmagnola,IT,44.847,7.718,43.95,66,17,2.13,few clouds,2021-12-04 17:32:45
556,Gizo,SB,-8.103,156.8419,82.49,78,90,7.56,overcast clouds,2021-12-04 17:32:46
557,Rovaniemi,FI,66.5,25.7167,4.41,85,0,8.05,clear sky,2021-12-04 17:32:46
558,Homer,US,59.6425,-151.5483,17.76,85,75,4.61,broken clouds,2021-12-04 17:32:47
559,Hermosillo,MX,29.0667,-110.9667,77.85,33,75,3.0,broken clouds,2021-12-04 17:28:29
560,Phan Thiet,VN,10.9333,108.1,69.03,83,75,5.86,broken clouds,2021-12-04 17:32:47
561,Mezen,RU,65.8522,44.24,-2.0,91,6,6.26,clear sky,2021-12-04 17:32:47
562,Springbok,ZA,-29.6643,17.8865,52.52,90,69,11.79,light rain,2021-12-04 17:32:48
563,Aiquile,BO,-18.2041,-65.1807,74.28,49,80,12.44,broken clouds,2021-12-04 17:32:48
564,Motygino,RU,58.1831,94.7592,20.89,92,100,11.79,overcast clouds,2021-12-04 17:32:48
565,Huarmey,PE,-10.0681,-78.1522,71.98,75,79,10.36,broken clouds,2021-12-04 17:32:49
566,Laibin,CN,23.7,109.2667,55.18,42,40,4.5,scattered clouds,2021-12-04 17:32:49
567,Prado,BR,-17.3411,-39.2208,79.74,74,10,7.16,light rain,2021-12-04 17:32:50
568,Tucurui,BR,-3.7661,-49.6725,82.26,74,100,1.45,overcast clouds,2021-12-04 17:32:50
569,Krasnyy Kommunar,RU,51.9644,55.3668,33.87,74,75,17.9,broken clouds,2021-12-04 17:32:50
570,Tunceli,TR,39.1083,39.5471,34.66,54,41,4.0,scattered clouds,2021-12-04 17:32:51
571,Korla,CN,41.7597,86.1469,28.9,59,100,4.05,overcast clouds,2021-12-04 17:32:51
572,Carutapera,BR,-1.195,-46.02,86.14,60,93,8.86,overcast clouds,2021-12-04 17:32:51
573,Camopi,GF,3.1655,-52.3158,80.33,91,83,3.47,broken clouds,2021-12-04 17:32:52
574,Asau,RO,46.4333,26.4,31.95,79,65,3.78,broken clouds,2021-12-04 17:32:52
575,Rocha,UY,-34.4833,-54.3333,74.89,51,90,13.65,overcast clouds,2021-12-04 17:32:52
576,Weihe,CN,32.9952,105.3247,39.07,65,0,4.12,clear sky,2021-12-04 17:32:53
577,Dalvik,IS,65.9702,-18.5286,12.13,86,83,4.7,broken clouds,2021-12-04 17:32:53
578,Mitsamiouli,KM,-11.3847,43.2844,84.49,61,20,12.66,light rain,2021-12-04 17:32:54
579,Mogadishu,SO,2.0371,45.3438,80.53,75,1,18.21,clear sky,2021-12-04 17:32:54
580,Porto Santo,PT,33.072,-16.3415,66.11,59,40,14.97,scattered clouds,2021-12-04 17:32:54
581,Usinsk,RU,65.9939,57.5281,-12.82,89,9,13.02,clear sky,2021-12-04 17:32:55
582,Westport,US,41.1415,-73.3579,48.97,57,1,1.01,clear sky,2021-12-04 17:30:13
583,Xiuyan,CN,40.2928,123.2744,28.47,51,0,2.37,clear sky,2021-12-04 17:32:55
584,Abbeville,FR,50.1,1.8333,46.36,66,29,15.28,scattered clouds,2021-12-04 17:30:21
585,Yuzhno-Sukhokumsk,RU,44.6581,45.6436,43.52,88,22,6.85,few clouds,2021-12-04 17:32:56
586,Kailua,US,21.4022,-157.7394,66.74,69,75,0.0,broken clouds,2021-12-04 17:32:56
587,Guapiacu,BR,-20.795,-49.2203,89.89,37,75,8.05,broken clouds,2021-12-04 17:32:56
588,Alofi,NU,-19.0595,-169.9187,75.09,94,98,6.91,overcast clouds,2021-12-04 17:32:57
589,San Buenaventura,MX,27.0833,-101.5333,82.47,46,40,0.0,scattered clouds,2021-12-04 17:32:57
590,Erenhot,CN,43.6475,111.9767,25.84,48,0,14.72,clear sky,2021-12-04 17:32:57
591,Luderitz,NA,-26.6481,15.1594,62.82,81,2,7.83,clear sky,2021-12-04 17:32:58
592,Shubarkuduk,KZ,49.1447,56.4872,30.72,76,77,8.39,broken clouds,2021-12-04 17:32:58
593,Salinopolis,BR,-0.6136,-47.3561,84.18,70,98,7.92,overcast clouds,2021-12-04 17:30:44
594,Aitape,PG,-3.1374,142.3475,78.67,89,100,6.64,moderate rain,2021-12-04 17:32:59
595,Bubaque,GW,11.2833,-15.8333,81.48,70,9,10.0,clear sky,2021-12-04 17:32:59
596,Oum Hadjer,TD,13.2954,19.6966,85.15,18,0,8.97,clear sky,2021-12-04 17:33:00
597,Makakilo City,US,21.3469,-158.0858,65.28,81,20,5.75,few clouds,2021-12-04 17:33:00
598,Haines Junction,CA,60.7522,-137.5108,-31.05,75,79,1.14,broken clouds,2021-12-04 17:33:00
599,Paamiut,GL,61.994,-49.6678,36.97,81,91,35.93,light rain,2021-12-04 17:33:01
600,Atambua,ID,-9.1061,124.8925,74.52,91,100,1.68,overcast clouds,2021-12-04 17:34:01
601,Lakatoro,VU,-16.0999,167.4164,78.75,81,99,5.41,overcast clouds,2021-12-04 17:34:01
602,Conceicao Do Araguaia,BR,-8.2578,-49.2647,80.26,85,99,5.19,moderate rain,2021-12-04 17:34:02
603,Hualmay,PE,-11.0964,-77.6139,72.0,72,82,10.04,broken clouds,2021-12-04 17:34:02
604,Walvis Bay,NA,-22.9575,14.5053,65.08,77,0,17.38,clear sky,2021-12-04 17:34:02
605,Harrisonburg,US,38.4496,-78.8689,59.43,53,40,3.44,scattered clouds,2021-12-04 17:33:35
606,Halifax,CA,44.6453,-63.5724,32.0,55,26,5.99,scattered clouds,2021-12-04 17:33:04
607,Cravo Norte,CO,6.3017,-70.2041,93.07,38,77,10.74,broken clouds,2021-12-04 17:34:03
608,Sembe,CG,1.6481,14.5806,76.5,84,91,1.3,light rain,2021-12-04 17:34:04
609,Ende,ID,-8.8432,121.6623,78.89,85,100,6.06,moderate rain,2021-12-04 17:34:04
610,Mananjary,MG,-21.2167,48.3333,76.62,87,0,8.16,clear sky,2021-12-04 17:34:04
611,Chake Chake,TZ,-5.2459,39.7666,78.96,81,26,6.31,scattered clouds,2021-12-04 17:34:05
612,Baruun-Urt,MN,46.6806,113.2792,22.75,40,10,16.64,clear sky,2021-12-04 17:34:05
613,Traverse City,US,44.7631,-85.6206,36.34,54,75,25.32,broken clouds,2021-12-04 17:32:11
614,Laukaa,RU,58.7372,29.8453,10.89,97,75,4.41,broken clouds,2021-12-04 17:34:06
615,Labuhan,ID,-6.8844,112.2051,77.23,85,100,14.43,very heavy rain,2021-12-04 17:34:06
616,Lima,PE,-12.0432,-77.0282,68.25,73,90,10.36,overcast clouds,2021-12-04 17:33:59
617,Oktyabrskoye,RU,43.0645,44.7417,32.14,86,12,4.47,few clouds,2021-12-04 17:34:07
618,Nizwa,OM,22.9333,57.5333,69.39,48,1,3.38,clear sky,2021-12-04 17:34:07
619,Mayo,US,38.8876,-76.5119,59.41,56,1,5.01,clear sky,2021-12-04 17:34:07
620,Ushtobe,KZ,45.2514,77.9838,40.17,69,100,10.83,overcast clouds,2021-12-04 17:34:08
621,Luga,RU,58.7372,29.8453,10.89,97,75,4.41,broken clouds,2021-12-04 17:34:08
622,Seoul,KR,37.5683,126.9778,26.2,74,0,2.3,clear sky,2021-12-04 17:30:07
623,Jashpurnagar,IN,22.9,84.15,57.56,79,89,4.7,overcast clouds,2021-12-04 17:34:09
624,Mapiripan,CO,2.8892,-72.1256,88.68,52,80,9.06,broken clouds,2021-12-04 17:34:09
625,Marzuq,YE,14.4,46.4667,62.58,30,0,0.65,clear sky,2021-12-04 17:34:09
626,Kilimatinde,TZ,-5.85,34.95,76.71,50,78,7.7,broken clouds,2021-12-04 17:34:10
627,Trinitapoli,IT,41.3572,16.0874,52.38,66,25,7.92,scattered clouds,2021-12-04 17:34:10
628,Balikpapan,ID,-1.2675,116.8289,75.36,91,87,3.22,overcast clouds,2021-12-04 17:34:11
629,Jining,CN,35.405,116.5814,40.95,51,2,6.42,clear sky,2021-12-04 17:34:11
630,Awjilah,LY,29.1081,21.2869,57.6,32,0,13.11,clear sky,2021-12-04 17:34:11
631,Shahdol,IN,23.2833,81.35,61.25,54,6,1.07,clear sky,2021-12-04 17:34:12
632,Kutum,SD,14.2,24.6667,73.42,23,1,5.53,clear sky,2021-12-04 17:34:12
633,Tutoia,BR,-2.7619,-42.2744,91.38,66,56,15.48,broken clouds,2021-12-04 17:34:13
634,Ondangwa,NA,-17.9167,15.95,82.94,43,68,22.62,broken clouds,2021-12-04 17:34:13
635,Camacupa,AO,-12.0167,17.4833,64.67,94,80,7.47,light rain,2021-12-04 17:34:13
636,Praia Da Vitoria,PT,38.7333,-27.0667,66.45,82,40,4.07,scattered clouds,2021-12-04 17:34:14
637,Kosonsoy,UZ,41.2561,71.5508,36.16,29,100,1.48,overcast clouds,2021-12-04 17:34:14
638,Nueve De Julio,AR,-35.4444,-60.8831,61.39,89,100,7.63,overcast clouds,2021-12-04 17:30:32
639,Freeport,US,40.6576,-73.5832,50.02,55,1,1.99,clear sky,2021-12-04 17:34:15
640,Parrita,CR,9.5201,-84.3225,92.98,70,9,7.63,clear sky,2021-12-04 17:34:15
641,Raudeberg,NO,61.9875,5.1352,36.86,81,93,4.0,light rain,2021-12-04 17:34:15
642,Srednekolymsk,RU,67.45,153.6833,-38.45,100,59,3.29,broken clouds,2021-12-04 17:34:16
643,Gweta,BW,-20.1833,25.2333,92.66,22,84,2.13,broken clouds,2021-12-04 17:34:16
644,San Lorenzo,PY,-25.3333,-57.5333,95.94,21,0,0.0,clear sky,2021-12-04 17:34:16
645,Asfi,MA,32.2994,-9.2372,61.86,62,0,16.11,clear sky,2021-12-04 17:34:17
646,Buchanan,LR,5.8808,-10.0467,87.76,76,94,9.22,overcast clouds,2021-12-04 17:35:17
647,Ropczyce,PL,50.0523,21.6089,37.24,67,100,8.97,light snow,2021-12-04 17:35:18
648,Chapais,CA,49.7834,-74.8492,1.18,79,97,4.09,overcast clouds,2021-12-04 17:35:18
649,Yerofey Pavlovich,RU,53.9667,121.9667,1.0,95,72,1.77,broken clouds,2021-12-04 17:35:19
650,Razole,IN,16.4833,81.8333,77.29,81,99,3.22,light rain,2021-12-04 17:35:19
651,Nome,US,64.5011,-165.4064,-5.46,100,89,3.8,overcast clouds,2021-12-04 17:35:19
652,Valdivia,CL,-39.8142,-73.2459,71.69,22,0,5.66,clear sky,2021-12-04 17:35:20
653,Puerto Madryn,AR,-42.7692,-65.0385,79.39,27,0,24.38,clear sky,2021-12-04 17:35:20
654,Dubbo,AU,-32.25,148.6167,57.33,88,0,8.05,clear sky,2021-12-04 17:34:48
655,Elko,US,41.0002,-115.5012,47.1,35,3,6.76,clear sky,2021-12-04 17:35:21
656,Kasama,ZM,-10.2129,31.1808,79.21,27,46,6.46,scattered clouds,2021-12-04 17:35:21
657,Bull Savanna,JM,17.8868,-77.5902,81.3,68,98,9.98,overcast clouds,2021-12-04 17:35:21
658,Kristiansund,NO,63.1115,7.732,34.45,80,75,11.5,broken clouds,2021-12-04 17:34:54
659,Bereda,ES,43.2686,-7.5406,49.91,100,86,3.33,overcast clouds,2021-12-04 17:35:22
660,Odweyne,SO,9.4092,45.064,63.3,68,1,8.9,clear sky,2021-12-04 17:35:22
661,Tanete,ID,-3.9443,119.7848,75.58,91,100,3.09,overcast clouds,2021-12-04 17:35:23
662,Mareeba,AU,-17.0,145.4333,70.52,87,82,2.33,broken clouds,2021-12-04 17:35:23
663,Beloha,MG,-25.1667,45.05,77.49,62,0,5.64,clear sky,2021-12-04 17:35:23
664,Tarko-Sale,RU,64.9225,77.785,-8.72,98,100,6.53,overcast clouds,2021-12-04 17:35:24
665,Izhma,RU,65.0083,53.9113,-2.42,82,100,9.89,overcast clouds,2021-12-04 17:35:24
666,Huangnihe,CN,43.5583,128.0239,6.51,88,11,2.33,few clouds,2021-12-04 17:35:24
667,Opuwo,NA,-18.0607,13.84,77.18,26,57,13.53,broken clouds,2021-12-04 17:35:25
668,Yerbogachen,RU,61.2767,108.0108,20.66,88,100,15.46,light snow,2021-12-04 17:35:25
669,Sneek,NL,53.033,5.6589,43.92,97,100,1.01,overcast clouds,2021-12-04 17:35:26
670,Gurupi,BR,-11.7292,-49.0686,83.48,71,100,4.94,moderate rain,2021-12-04 17:35:26
671,Pattukkottai,IN,10.4333,79.3167,77.31,83,17,2.53,few clouds,2021-12-04 17:35:26
672,Shenkursk,RU,62.1091,42.896,6.13,92,100,10.92,light snow,2021-12-04 17:35:27
673,Isiro,CD,2.7739,27.616,69.26,89,75,1.61,broken clouds,2021-12-04 17:35:27
674,Filadelfia,US,39.9523,-75.1638,49.93,61,75,3.0,broken clouds,2021-12-04 17:32:19
675,Mao,ES,39.8885,4.2658,55.96,76,20,6.91,few clouds,2021-12-04 17:35:27
676,Guarda,PT,40.5373,-7.2658,41.45,95,50,6.58,scattered clouds,2021-12-04 17:35:28
677,Faya,SA,18.3851,42.4509,59.11,33,2,3.62,clear sky,2021-12-04 17:35:28
678,Mawlaik,MM,23.6333,94.4167,71.58,78,99,1.52,overcast clouds,2021-12-04 17:35:28
679,Yarmouth,US,41.7057,-70.2286,43.25,54,90,8.05,overcast clouds,2021-12-04 17:35:29
