City_ID,City_ID,City,Country,Date,Lat,Lng,Max Temp,Humidity,Cloudiness,Wind Speed
0,0,Rikitea,PF,2021-11-29 00:26:44,-23.1203,-134.9692,76.96,73,6,19.75
1,1,Bredasdorp,ZA,2021-11-29 00:26:44,-34.5322,20.0403,62.28,81,54,4.27
2,2,Albany,US,2021-11-29 00:26:13,42.6001,-73.9662,30.85,96,86,0.67
3,3,Airai,TL,2021-11-29 00:26:45,-8.9266,125.4092,69.15,71,100,0.69
4,4,New Norfolk,AU,2021-11-29 00:26:45,-42.7826,147.0587,63.9,46,85,2.98
5,5,Garissa,KE,2021-11-29 00:26:45,-0.4536,39.6401,77.18,83,81,7.0
6,6,Chokurdakh,RU,2021-11-29 00:24:14,70.6333,147.9167,-39.17,100,87,1.36
7,7,Yellowknife,CA,2021-11-29 00:26:46,62.456,-114.3525,18.12,100,90,10.36
8,8,Honiara,SB,2021-11-29 00:26:46,-9.4333,159.95,86.7,69,81,6.11
9,9,Merauke,ID,2021-11-29 00:26:46,-8.4667,140.3333,84.99,66,100,3.51
10,10,Codrington,AU,2021-11-29 00:26:47,-38.2667,141.9667,71.92,45,0,2.64
11,11,Shahrud,IR,2021-11-29 00:26:47,36.4182,54.9763,40.98,64,13,1.99
12,12,Pisco,PE,2021-11-29 00:26:48,-13.7,-76.2167,66.25,82,0,13.8
13,13,Margate,GB,2021-11-29 00:26:48,51.3813,1.3862,31.86,82,17,22.59
14,14,Kodiak,US,2021-11-29 00:26:49,57.79,-152.4072,9.91,52,1,8.05
15,15,Rocha,UY,2021-11-29 00:26:49,-34.4833,-54.3333,63.99,98,100,2.53
16,16,Busselton,AU,2021-11-29 00:26:49,-33.65,115.3333,65.84,67,63,8.05
17,17,Punta Arenas,CL,2021-11-29 00:26:50,-53.15,-70.9167,44.71,70,75,31.07
18,18,Saint-Joseph,RE,2021-11-29 00:26:50,-21.3667,55.6167,73.78,86,28,7.63
19,19,Bluff,NZ,2021-11-29 00:26:50,-46.6,168.3333,57.6,69,43,19.71
20,20,Wuzhou,CN,2021-11-29 00:26:51,23.4833,111.3167,57.78,74,4,2.28
21,21,Saint-Philippe,RE,2021-11-29 00:26:51,-21.3585,55.7679,74.79,84,38,5.08
22,22,Victoria,HK,2021-11-29 00:22:58,22.2855,114.1577,69.85,58,32,6.96
23,23,Faanui,PF,2021-11-29 00:26:52,-16.4833,-151.75,81.66,72,79,9.6
24,24,Ushuaia,AR,2021-11-29 00:25:26,-54.8,-68.3,40.66,81,75,24.16
25,25,Luwuk,ID,2021-11-29 00:26:52,-0.9516,122.7875,78.35,86,100,2.39
26,26,Tshikapa,CD,2021-11-29 00:26:52,-6.4167,20.8,68.41,98,62,2.1
27,27,Lebu,CL,2021-11-29 00:26:53,-37.6167,-73.65,53.24,78,7,18.88
28,28,Mataura,NZ,2021-11-29 00:26:53,-46.1927,168.8643,69.89,26,61,6.17
29,29,Puerto Ayora,EC,2021-11-29 00:26:53,-0.7393,-90.3518,69.71,81,78,11.32
30,30,Jamestown,US,2021-11-29 00:26:54,42.097,-79.2353,35.19,100,90,6.91
31,31,Kutum,SD,2021-11-29 00:26:54,14.2,24.6667,65.71,23,0,7.23
32,32,Torbay,CA,2021-11-29 00:26:54,47.6666,-52.7314,41.77,87,20,9.22
33,33,Thompson,CA,2021-11-29 00:26:55,55.7435,-97.8558,-2.04,84,75,2.3
34,34,Kalmunai,LK,2021-11-29 00:26:55,7.4167,81.8167,78.1,86,84,5.44
35,35,Waitara,NZ,2021-11-29 00:26:55,-38.925,174.25,66.0,78,67,7.18
36,36,Esperance,AU,2021-11-29 00:26:56,-33.8667,121.9,67.84,77,70,17.58
37,37,Sioux Lookout,CA,2021-11-29 00:26:56,50.1001,-91.917,23.38,73,90,6.91
38,38,Goderich,CA,2021-11-29 00:26:57,43.7501,-81.7165,30.52,86,100,8.05
39,39,Port Alfred,ZA,2021-11-29 00:26:57,-33.5906,26.891,64.87,81,27,12.01
40,40,Hilo,US,2021-11-29 00:24:31,19.7297,-155.09,80.33,61,75,12.66
41,41,Butaritari,KI,2021-11-29 00:26:57,3.0707,172.7902,81.73,78,99,12.46
42,42,Hermanus,ZA,2021-11-29 00:26:58,-34.4187,19.2345,62.38,87,83,6.22
43,43,Cape Town,ZA,2021-11-29 00:25:30,-33.9258,18.4232,61.21,100,75,4.61
44,44,Whakatane,NZ,2021-11-29 00:26:58,-37.9585,176.9854,70.59,52,35,8.3
45,45,Ponta Do Sol,PT,2021-11-29 00:26:59,32.6667,-17.1,63.23,76,18,8.68
46,46,Sturgeon Falls,CA,2021-11-29 00:27:59,46.3646,-79.9326,15.76,73,100,4.97
47,47,Kasane,BW,2021-11-29 00:27:59,-17.8167,25.15,71.22,46,6,4.23
48,48,Portland,US,2021-11-29 00:27:48,45.5234,-122.6762,62.58,65,75,8.05
49,49,Georgetown,MY,2021-11-29 00:24:48,5.4112,100.3354,76.93,94,20,0.0
50,50,Whitehorse,CA,2021-11-29 00:23:18,60.7161,-135.0538,-8.63,84,20,0.0
51,51,Upernavik,GL,2021-11-29 00:28:00,72.7868,-56.1549,-8.52,75,13,9.13
52,52,Dikson,RU,2021-11-29 00:28:00,73.5069,80.5464,-14.89,100,100,14.65
53,53,Ilhabela,BR,2021-11-29 00:28:01,-23.7781,-45.3581,72.21,89,57,5.55
54,54,Biak,ID,2021-11-29 00:28:01,-0.9131,122.8766,76.68,84,100,2.91
55,55,Vaini,TO,2021-11-29 00:28:01,-21.2,-175.2,82.56,78,40,12.66
56,56,San Patricio,US,2021-11-29 00:28:02,28.017,-97.5169,62.46,68,100,11.12
57,57,Kapaa,US,2021-11-29 00:28:02,22.0752,-159.319,82.38,61,75,18.41
58,58,Ornskoldsvik,SE,2021-11-29 00:28:03,63.2909,18.7153,14.95,100,100,4.61
59,59,Mount Isa,AU,2021-11-29 00:28:03,-20.7333,139.5,89.37,20,40,11.5
60,60,Turukhansk,RU,2021-11-29 00:28:03,65.8167,87.9833,-21.06,100,95,1.81
61,61,Alofi,NU,2021-11-29 00:28:04,-19.0595,-169.9187,82.29,54,9,16.11
62,62,Mazamet,FR,2021-11-29 00:28:04,43.49,2.373,35.91,93,40,6.91
63,63,Saravan,AM,2021-11-29 00:28:04,39.7196,45.6483,30.85,92,96,2.42
64,64,Gravdal,NO,2021-11-29 00:28:05,68.1214,13.5031,31.84,46,100,15.26
65,65,Kenora,CA,2021-11-29 00:28:05,49.8167,-94.4337,24.78,79,90,0.0
66,66,Hasaki,JP,2021-11-29 00:28:05,35.7333,140.8333,45.0,45,16,4.07
67,67,Raduzhnyy,RU,2021-11-29 00:28:06,62.0961,77.475,9.84,95,100,7.52
68,68,Krasnogorskoye,RU,2021-11-29 00:28:06,52.2953,86.1979,9.9,96,73,2.86
69,69,Iguatu,BR,2021-11-29 00:28:06,-6.3594,-39.2986,83.8,42,58,1.5
70,70,Dicabisagan,PH,2021-11-29 00:28:07,17.0818,122.4157,78.75,88,89,0.45
71,71,Kudahuvadhoo,MV,2021-11-29 00:28:07,2.6708,72.8944,82.35,74,99,17.85
72,72,Ancud,CL,2021-11-29 00:25:22,-41.8697,-73.8203,53.13,82,88,6.93
73,73,Sumenep,ID,2021-11-29 00:28:08,-7.0167,113.8667,74.46,92,100,4.79
74,74,Atuona,PF,2021-11-29 00:25:58,-9.8,-139.0333,78.6,71,2,17.02
75,75,Asyut,EG,2021-11-29 00:28:08,27.181,31.1837,70.65,21,64,4.81
76,76,Arkhangelsk,RU,2021-11-29 00:28:08,64.5401,40.5433,5.11,92,20,2.24
77,77,Mufumbwe,ZM,2021-11-29 00:28:09,-13.6833,24.8,62.11,94,13,3.18
78,78,Scarborough,GB,2021-11-29 00:28:09,54.2797,-0.4044,33.37,75,60,12.3
79,79,Vega De Alatorre,MX,2021-11-29 00:28:09,20.0333,-96.6333,72.3,88,97,15.19
80,80,Gemena,CD,2021-11-29 00:28:10,3.25,19.7667,70.25,57,99,3.06
81,81,Avarua,CK,2021-11-29 00:28:10,-21.2078,-159.775,78.85,65,90,8.05
82,82,Richards Bay,ZA,2021-11-29 00:28:11,-28.783,32.0377,69.19,80,24,4.79
83,83,Te Anau,NZ,2021-11-29 00:28:11,-45.4167,167.7167,68.68,32,26,2.15
84,84,Svetlogorsk,BY,2021-11-29 00:28:11,52.6333,29.7333,39.36,97,97,9.24
85,85,Cabo San Lucas,MX,2021-11-29 00:25:27,22.8909,-109.9124,78.1,73,90,6.91
86,86,Port Hardy,CA,2021-11-29 00:28:12,50.6996,-127.4199,48.38,100,90,3.44
87,87,Bengkulu,ID,2021-11-29 00:28:12,-3.8004,102.2655,77.5,82,97,5.86
88,88,Nuristan,AF,2021-11-29 00:28:13,35.3,70.8333,14.81,65,54,9.69
89,89,Tuatapere,NZ,2021-11-29 00:28:13,-46.1333,167.6833,65.7,41,16,6.8
90,90,Westport,US,2021-11-29 00:28:13,41.1415,-73.3579,37.54,75,90,4.61
91,91,Aklavik,CA,2021-11-29 00:28:14,68.2191,-135.0107,-13.97,85,100,18.81
92,92,Port Lincoln,AU,2021-11-29 00:28:14,-34.7333,135.8667,67.73,55,0,6.29
93,93,Cidreira,BR,2021-11-29 00:29:14,-30.1811,-50.2056,71.1,89,100,8.99
94,94,Taltal,CL,2021-11-29 00:29:15,-25.4,-70.4833,62.33,80,24,3.62
95,95,Moose Factory,CA,2021-11-29 00:29:15,51.2585,-80.6094,21.2,93,90,0.0
96,96,Chase,CA,2021-11-29 00:29:15,50.8165,-119.6857,41.88,99,100,2.17
97,97,Carnarvon,AU,2021-11-29 00:29:16,-24.8667,113.6333,84.27,45,1,16.11
98,98,Ribeira Grande,PT,2021-11-29 00:29:16,38.5167,-28.7,62.08,63,95,5.12
99,99,Sao Sebastiao,BR,2021-11-29 00:28:01,-23.76,-45.4097,71.83,90,61,5.75
100,100,Mercedes,AR,2021-11-29 00:29:17,-34.6515,-59.4307,61.14,95,100,8.16
101,101,Fairbanks,US,2021-11-29 00:28:58,64.8378,-147.7164,-25.64,72,1,0.0
102,102,Zafra,ES,2021-11-29 00:29:17,38.4167,-6.4167,46.4,89,61,12.57
103,103,Abu Samrah,SY,2021-11-29 00:29:17,35.3029,37.1841,58.75,67,7,3.76
104,104,Lagoa,PT,2021-11-29 00:29:18,39.05,-27.9833,60.21,56,40,2.77
105,105,Makakilo City,US,2021-11-29 00:29:18,21.3469,-158.0858,82.72,53,75,11.5
106,106,Negombo,LK,2021-11-29 00:29:19,7.2083,79.8358,75.25,100,75,2.3
107,107,Taebla,EE,2021-11-29 00:29:19,58.9547,23.7419,26.96,89,85,7.29
108,108,Jaffna,LK,2021-11-29 00:29:19,9.6685,80.0074,78.08,87,100,9.75
109,109,Hofn,IS,2021-11-29 00:29:20,64.2539,-15.2082,34.14,91,100,10.2
110,110,Samarai,PG,2021-11-29 00:29:20,-10.6167,150.6667,83.16,79,85,11.45
111,111,Nikolskoye,RU,2021-11-29 00:29:20,59.7035,30.7861,21.09,91,94,6.02
112,112,Bantogon,PH,2021-11-29 00:29:21,6.5333,124.0333,81.07,75,99,0.94
113,113,Khatanga,RU,2021-11-29 00:29:21,71.9667,102.5,-7.28,98,100,8.77
114,114,Hobart,AU,2021-11-29 00:29:21,-42.8794,147.3294,64.26,63,20,10.36
115,115,Zhigansk,RU,2021-11-29 00:29:22,66.7697,123.3711,-8.64,97,100,7.36
116,116,Asau,RO,2021-11-29 00:29:22,46.4333,26.4,40.12,75,100,4.94
117,117,Troitsko-Pechorsk,RU,2021-11-29 00:29:22,62.7084,56.1964,27.73,97,100,8.48
118,118,Taoudenni,ML,2021-11-29 00:29:23,22.6783,-3.9836,65.5,26,1,9.75
119,119,Razole,IN,2021-11-29 00:29:23,16.4833,81.8333,72.43,91,100,4.81
120,120,Tome,CL,2021-11-29 00:29:23,-36.6167,-72.95,56.01,59,1,9.31
121,121,Aswan,EG,2021-11-29 00:29:24,24.0934,32.907,74.84,33,50,8.93
122,122,Iqaluit,CA,2021-11-29 00:29:24,63.7506,-68.5145,24.53,63,90,11.5
123,123,Lata,PT,2021-11-29 00:29:24,40.1629,-8.3327,52.21,91,97,10.04
124,124,Nerchinskiy Zavod,RU,2021-11-29 00:29:25,51.3088,119.61,-3.26,99,58,1.97
125,125,Hithadhoo,MV,2021-11-29 00:29:25,-0.6,73.0833,81.41,76,80,19.1
126,126,Gwanda,ZW,2021-11-29 00:29:26,-20.9333,29.0,69.93,57,45,5.32
127,127,Hualmay,PE,2021-11-29 00:29:26,-11.0964,-77.6139,66.61,84,79,10.4
128,128,Chuy,UY,2021-11-29 00:29:26,-33.6971,-53.4616,64.26,96,100,3.87
129,129,San Felipe,VE,2021-11-29 00:29:27,10.3399,-68.7425,71.26,98,98,2.21
130,130,Cabras,IT,2021-11-29 00:29:27,39.93,8.5314,49.51,63,99,21.18
131,131,Nauta,PE,2021-11-29 00:29:27,-4.5061,-73.5757,76.03,94,100,1.77
132,132,Vila,PT,2021-11-29 00:29:28,42.0304,-8.1588,43.68,95,100,5.26
133,133,Coihaique,CL,2021-11-29 00:29:28,-45.5752,-72.0662,55.35,50,75,8.05
134,134,Howard Springs,AU,2021-11-29 00:29:28,-12.497,131.047,89.51,63,100,4.09
135,135,Mecca,SA,2021-11-29 00:26:42,21.4267,39.8261,76.21,58,0,0.49
136,136,Guerrero Negro,MX,2021-11-29 00:26:36,27.9769,-114.0611,73.27,43,0,9.98
137,137,Leshukonskoye,RU,2021-11-29 00:29:29,64.8989,45.7622,12.76,93,100,7.52
138,138,Tonantins,BR,2021-11-29 00:29:29,-2.8731,-67.8022,77.85,85,100,2.46
139,139,Provideniya,RU,2021-11-29 00:25:10,64.3833,-173.3,-5.69,59,0,8.95
140,140,Lavrentiya,RU,2021-11-29 00:29:30,65.5833,-171.0,-12.42,90,5,7.67
141,141,Kieta,PG,2021-11-29 00:29:30,-6.2167,155.6333,85.28,66,98,3.6
142,142,San,ML,2021-11-29 00:29:30,13.3034,-4.8956,81.84,14,92,7.4
143,143,Imbituba,BR,2021-11-29 00:30:31,-28.24,-48.6703,73.29,93,76,6.11
144,144,Morgan City,US,2021-11-29 00:30:31,29.6994,-91.2068,62.6,94,20,0.0
145,145,Bambous Virieux,MU,2021-11-29 00:30:32,-20.3428,57.7575,71.85,88,40,4.61
146,146,Gamba,GA,2021-11-29 00:30:32,-2.65,10.0,77.02,89,98,6.08
147,147,Hobyo,SO,2021-11-29 00:30:32,5.3505,48.5268,80.65,77,22,17.16
148,148,Concarneau,FR,2021-11-29 00:30:33,47.875,-3.9225,45.37,90,64,8.01
149,149,Mapimi,MX,2021-11-29 00:30:33,25.8167,-103.85,65.17,49,66,4.43
150,150,Wuwei,CN,2021-11-29 00:30:33,37.9281,102.6414,24.84,43,0,0.98
151,151,Coquimbo,CL,2021-11-29 00:26:08,-29.9533,-71.3436,60.53,82,0,10.36
152,152,Skjervoy,NO,2021-11-29 00:30:34,70.0311,20.9714,29.77,70,99,8.79
153,153,Kavaratti,IN,2021-11-29 00:30:34,10.5669,72.642,80.82,80,100,18.03
154,154,Warwick,US,2021-11-29 00:25:36,41.7001,-71.4162,37.53,69,90,0.0
155,155,Marihatag,PH,2021-11-29 00:30:35,8.7936,126.2969,81.12,82,73,3.38
156,156,Pombia,IT,2021-11-29 00:30:35,45.653,8.6336,33.51,93,0,6.91
157,157,Norman Wells,CA,2021-11-29 00:30:35,65.282,-126.8329,-16.56,69,90,14.97
158,158,Reconquista,AR,2021-11-29 00:30:10,-29.15,-59.65,63.72,71,0,4.79
159,159,Launceston,AU,2021-11-29 00:27:34,-41.45,147.1667,64.04,59,3,8.05
160,160,Broome,US,2021-11-29 00:30:36,42.2506,-75.833,32.77,100,90,6.91
161,161,Chipata,ZM,2021-11-29 00:30:36,-13.6333,32.65,64.69,65,4,5.03
162,162,Lucapa,AO,2021-11-29 00:30:37,-8.4192,20.7447,63.18,97,90,2.33
163,163,Viedma,AR,2021-11-29 00:30:24,-40.8135,-62.9967,61.0,60,84,8.08
164,164,Port Elizabeth,ZA,2021-11-29 00:25:48,-33.918,25.5701,62.89,88,0,10.36
165,165,Alexandria,EG,2021-11-29 00:29:56,31.2156,29.9553,70.34,49,94,6.8
166,166,Haines Junction,CA,2021-11-29 00:30:38,60.7522,-137.5108,-13.05,77,100,1.14
167,167,Tuktoyaktuk,CA,2021-11-29 00:30:38,69.4541,-133.0374,-11.2,77,90,17.27
168,168,Talnakh,RU,2021-11-29 00:30:38,69.4865,88.3972,-17.25,99,99,4.29
169,169,Maloy,NO,2021-11-29 00:30:39,61.9353,5.1136,28.13,60,77,7.54
170,170,Verkhnevilyuysk,RU,2021-11-29 00:30:39,63.4453,120.3167,-20.97,100,75,2.91
171,171,Necochea,AR,2021-11-29 00:30:39,-38.5473,-58.7368,59.83,97,100,10.22
172,172,Saskylakh,RU,2021-11-29 00:30:40,71.9167,114.0833,-21.01,100,99,4.9
173,173,Mar Del Plata,AR,2021-11-29 00:29:30,-38.0023,-57.5575,62.62,100,90,11.5
174,174,Yangambi,CD,2021-11-29 00:30:40,0.8102,24.4336,70.16,98,100,1.61
175,175,Praia Da Vitoria,PT,2021-11-29 00:30:41,38.7333,-27.0667,50.25,100,0,1.83
176,176,Namatanai,PG,2021-11-29 00:30:41,-3.6667,152.4333,85.82,66,100,6.82
177,177,Ambilobe,MG,2021-11-29 00:30:41,-13.2,49.05,73.51,90,18,3.0
178,178,Kinango,KE,2021-11-29 00:30:42,-4.1372,39.3153,77.11,96,18,1.83
179,179,Barrow,US,2021-11-29 00:30:42,71.2906,-156.7887,-14.78,70,20,11.5
180,180,Makkaveyevo,RU,2021-11-29 00:30:42,51.7533,113.9454,-8.68,95,100,2.28
181,181,Prince George,CA,2021-11-29 00:26:17,53.9166,-122.753,44.04,70,75,3.44
182,182,Newry,GB,2021-11-29 00:30:43,54.1784,-6.3374,37.35,84,100,1.48
183,183,Road Town,VG,2021-11-29 00:30:43,18.4167,-64.6167,80.64,83,20,4.61
184,184,Ketchikan,US,2021-11-29 00:30:43,55.3422,-131.6461,34.27,86,75,6.91
185,185,Sinazongwe,ZM,2021-11-29 00:30:44,-17.2614,27.4618,76.66,56,10,5.97
186,186,Kisangani,CD,2021-11-29 00:30:44,0.5167,25.2,70.57,99,100,1.41
187,187,Boca Do Acre,BR,2021-11-29 00:30:44,-8.7522,-67.3978,74.57,91,100,2.33
188,188,Khash,IR,2021-11-29 00:31:45,28.2211,61.2158,49.87,41,47,3.18
189,189,Nemuro,JP,2021-11-29 00:31:45,43.3236,145.575,39.63,68,100,12.15
190,190,Arraial Do Cabo,BR,2021-11-29 00:31:45,-22.9661,-42.0278,73.2,86,0,4.83
191,191,Morondava,MG,2021-11-29 00:31:46,-20.2833,44.2833,72.27,79,0,3.13
192,192,Ahipara,NZ,2021-11-29 00:31:46,-35.1667,173.1667,71.35,59,73,5.97
193,193,Nhulunbuy,AU,2021-11-29 00:31:46,-12.2333,136.7667,92.01,46,20,6.91
194,194,Pozo Colorado,PY,2021-11-29 00:31:47,-23.4923,-58.7972,71.06,97,41,3.87
195,195,Sisimiut,GL,2021-11-29 00:31:47,66.9395,-53.6735,32.54,98,100,4.99
196,196,Batagay-Alyta,RU,2021-11-29 00:31:48,67.8006,130.4114,-20.04,97,100,3.78
197,197,Dingle,PH,2021-11-29 00:31:48,10.9995,122.6711,82.85,79,39,9.51
198,198,Katobu,ID,2021-11-29 00:31:48,-4.9408,122.5276,80.19,83,99,3.53
199,199,Taksimo,RU,2021-11-29 00:31:49,56.3444,114.8794,-5.82,93,100,0.34
200,200,Tiksi,RU,2021-11-29 00:31:49,71.6872,128.8694,-16.01,99,99,6.35
201,201,Charters Towers,AU,2021-11-29 00:31:49,-20.1,146.2667,88.75,47,97,12.24
202,202,Qaanaaq,GL,2021-11-29 00:31:50,77.484,-69.3632,-7.73,68,7,8.37
203,203,Tocopilla,CL,2021-11-29 00:30:19,-22.092,-70.1979,64.38,73,33,4.99
204,204,Sinnar,SD,2021-11-29 00:31:50,13.5691,33.5672,80.4,40,6,10.6
205,205,Mount Gambier,AU,2021-11-29 00:31:37,-37.8333,140.7667,76.91,36,0,6.91
206,206,Havelock,US,2021-11-29 00:31:51,34.8791,-76.9013,55.35,53,100,6.67
207,207,Asfi,MA,2021-11-29 00:31:51,32.2994,-9.2372,55.9,64,0,15.17
208,208,Monrovia,LR,2021-11-29 00:27:52,6.3005,-10.7969,79.74,80,4,6.64
209,209,Udachnyy,RU,2021-11-29 00:31:52,66.4167,112.4,-22.4,99,98,1.97
210,210,Yeniseysk,RU,2021-11-29 00:31:52,58.4497,92.1703,17.78,89,85,6.8
211,211,Pendleton,US,2021-11-29 00:27:12,45.6721,-118.7886,59.23,76,1,10.36
212,212,Kaitangata,NZ,2021-11-29 00:31:53,-46.2817,169.8464,69.93,31,6,6.13
213,213,Celestun,MX,2021-11-29 00:31:53,20.8667,-90.4,75.69,78,79,11.16
214,214,Tooele,US,2021-11-29 00:31:53,40.5308,-112.2983,45.25,75,1,3.44
215,215,Gimli,CA,2021-11-29 00:31:54,50.6336,-96.9907,24.82,80,100,10.36
216,216,Piranhas,BR,2021-11-29 00:31:54,-16.4269,-51.8222,76.66,82,97,0.78
217,217,Madimba,TZ,2021-11-29 00:31:54,-10.4,40.3333,78.19,79,100,6.44
218,218,Gigmoto,PH,2021-11-29 00:31:55,13.7796,124.39,82.47,81,97,8.72
219,219,Balagansk,RU,2021-11-29 00:31:55,54.0103,103.0544,20.98,93,100,11.81
220,220,Rajula,IN,2021-11-29 00:31:23,21.05,71.4333,72.36,49,100,8.43
221,221,Moussoro,TD,2021-11-29 00:31:56,13.6408,16.4901,75.58,14,15,9.98
222,222,Saint-Francois,FR,2021-11-29 00:31:56,46.4154,3.9054,33.24,93,90,11.5
223,223,Narrabri,AU,2021-11-29 00:31:56,-30.3167,149.7833,77.09,57,90,11.5
224,224,Kaniama,CD,2021-11-29 00:31:57,-7.5667,24.1833,64.69,95,100,2.8
225,225,Severo-Kurilsk,RU,2021-11-29 00:31:57,50.6789,156.125,34.11,71,99,16.49
226,226,Bethel,US,2021-11-29 00:31:58,41.3712,-73.414,36.18,80,90,0.0
227,227,Bandarbeyla,SO,2021-11-29 00:31:58,9.4942,50.8122,76.86,77,29,17.27
228,228,Salalah,OM,2021-11-29 00:31:58,17.0151,54.0924,73.49,78,0,5.75
229,229,Kiruna,SE,2021-11-29 00:27:44,67.8557,20.2251,-15.68,76,100,0.0
230,230,Naze,JP,2021-11-29 00:31:59,28.3667,129.4833,67.12,67,100,15.84
231,231,Sao Filipe,CV,2021-11-29 00:32:59,14.8961,-24.4956,75.61,70,98,13.29
232,232,Bonavista,CA,2021-11-29 00:33:00,48.6499,-53.1147,37.4,81,57,16.62
233,233,Ulladulla,AU,2021-11-29 00:33:00,-35.35,150.4667,65.3,58,52,7.76
234,234,Honningsvag,NO,2021-11-29 00:33:00,70.9821,25.9704,18.48,91,76,24.38
235,235,Aguas Vermelhas,BR,2021-11-29 00:33:01,-15.7472,-41.46,65.75,98,8,2.3
236,236,Belaya Gora,RU,2021-11-29 00:33:01,68.5333,146.4167,-17.0,99,100,3.2
237,237,Huambo,AO,2021-11-29 00:33:01,-12.7761,15.7392,59.76,98,100,0.83
238,238,Hamirpur,IN,2021-11-29 00:33:02,25.95,80.15,61.57,52,13,1.7
239,239,Sobolevo,RU,2021-11-29 00:33:02,54.4299,31.8996,37.13,98,100,10.67
240,240,Kavieng,PG,2021-11-29 00:33:02,-2.5744,150.7967,83.59,75,97,9.28
241,241,Roald,NO,2021-11-29 00:33:03,62.5833,6.1333,28.54,69,20,12.66
242,242,Flin Flon,CA,2021-11-29 00:33:03,54.7682,-101.865,17.44,79,90,6.91
243,243,Ixtapa,MX,2021-11-29 00:33:03,20.7,-105.2,81.63,65,20,8.05
244,244,Saldanha,ZA,2021-11-29 00:33:04,-33.0117,17.9442,60.85,86,99,4.81
245,245,Yulara,AU,2021-11-29 00:33:04,-25.2406,130.9889,82.24,18,0,14.97
246,246,General Teran,MX,2021-11-29 00:33:04,25.2667,-99.6833,63.84,61,100,6.04
247,247,Sur,OM,2021-11-29 00:33:05,22.5667,59.5289,72.64,63,6,5.59
248,248,Luderitz,,2021-11-29 00:33:05,-26.6481,15.1594,59.41,84,67,5.97
249,249,Narsaq,GL,2021-11-29 00:33:06,60.9167,-46.05,37.62,99,100,2.59
250,250,Katsuura,JP,2021-11-29 00:33:06,35.1333,140.3,48.31,50,96,6.93
251,251,Petropavlovsk-Kamchatskiy,RU,2021-11-29 00:32:15,53.0452,158.6483,23.59,54,0,11.18
252,252,Castro,BR,2021-11-29 00:33:06,-24.7911,-50.0119,68.95,60,100,7.05
253,253,Wasilla,US,2021-11-29 00:33:07,61.5814,-149.4394,0.55,82,90,0.0
254,254,Palauig,PH,2021-11-29 00:33:07,15.435,119.9045,84.42,66,36,2.95
255,255,Vestmannaeyjar,IS,2021-11-29 00:33:07,63.4427,-20.2734,45.19,92,100,18.95
256,256,Paramonga,PE,2021-11-29 00:33:08,-10.6667,-77.8333,66.38,86,100,9.04
257,257,Baykit,RU,2021-11-29 00:33:08,61.67,96.37,11.1,89,100,10.76
258,258,Sembe,CG,2021-11-29 00:33:08,1.6481,14.5806,72.05,78,100,1.45
259,259,Vao,NC,2021-11-29 00:33:09,-22.6667,167.4833,75.96,89,59,19.48
260,260,Mikhaylovskoye,RU,2021-11-29 00:33:09,51.8239,79.7172,15.19,83,92,5.84
261,261,Vila Velha,BR,2021-11-29 00:33:09,-20.3297,-40.2925,71.55,88,40,9.22
262,262,Saint-Augustin,CA,2021-11-29 00:33:10,51.226,-58.6502,33.71,88,83,19.77
263,263,Mazamari,PE,2021-11-29 00:33:10,-11.3258,-74.5308,69.93,96,100,2.39
264,264,Hovd,MN,2021-11-29 00:33:11,48.0056,91.6419,14.65,44,0,0.81
265,265,Severomorsk,RU,2021-11-29 00:33:11,69.0689,33.4162,4.03,91,22,10.04
266,266,Pitea,SE,2021-11-29 00:33:11,65.3172,21.4794,14.79,84,100,2.33
267,267,Yakeshi,CN,2021-11-29 00:33:12,49.2833,120.7333,6.13,93,98,4.92
268,268,Tarakan,ID,2021-11-29 00:33:12,3.3,117.6333,78.3,89,75,6.91
269,269,Riachao Do Dantas,BR,2021-11-29 00:28:12,-11.0689,-37.725,72.32,93,100,5.28
270,270,Huarmey,PE,2021-11-29 00:33:12,-10.0681,-78.1522,67.12,84,100,8.39
271,271,Kita,ML,2021-11-29 00:33:13,13.0349,-9.4895,76.08,23,6,4.34
272,272,Shingu,JP,2021-11-29 00:33:13,33.7333,135.9833,54.59,53,5,0.92
273,273,Eyl,SO,2021-11-29 00:33:14,7.9803,49.8164,74.46,75,49,12.88
274,274,Dunedin,NZ,2021-11-29 00:32:27,-45.8742,170.5036,65.03,53,52,7.05
275,275,West Wendover,US,2021-11-29 00:33:14,40.7391,-114.0733,42.01,42,1,0.0
276,276,Vinh,VN,2021-11-29 00:33:14,18.6667,105.6667,68.56,76,100,4.9
277,277,Santa Maria,BR,2021-11-29 00:33:15,-29.6842,-53.8069,72.7,83,75,5.75
278,278,Sinnamary,GF,2021-11-29 00:33:15,5.3833,-52.95,77.27,90,97,9.08
279,279,Yarada,IN,2021-11-29 00:34:15,17.65,83.2667,77.32,65,90,4.61
280,280,San Quintin,MX,2021-11-29 00:34:16,30.4833,-115.95,65.23,56,0,10.02
281,281,Kyzyl,RU,2021-11-29 00:34:16,51.7,94.45,4.05,98,98,0.65
282,282,Amahai,ID,2021-11-29 00:34:16,-3.3333,128.9167,85.44,67,80,2.3
283,283,San Policarpo,PH,2021-11-29 00:34:17,12.1791,125.5072,82.45,82,100,10.94
284,284,Sabha,LY,2021-11-29 00:34:17,27.0377,14.4283,68.94,25,100,11.68
285,285,Cherskiy,RU,2021-11-29 00:34:18,68.75,161.3,-17.39,98,100,5.95
286,286,Tessalit,ML,2021-11-29 00:34:18,20.1986,1.0114,70.9,31,100,10.02
287,287,Ewo,CG,2021-11-29 00:34:18,-0.8725,14.8206,73.31,87,92,1.28
288,288,Kottagudem,IN,2021-11-29 00:34:19,17.55,80.6333,70.25,89,100,3.49
289,289,Tahoua,NE,2021-11-29 00:34:19,14.8888,5.2692,73.17,14,100,11.52
290,290,Hagere Hiywet,ET,2021-11-29 00:34:19,8.9833,37.85,50.58,71,0,5.64
291,291,Sabang,ID,2021-11-29 00:34:20,5.8933,95.3214,79.74,76,100,3.58
292,292,Salinopolis,BR,2021-11-29 00:34:20,-0.6136,-47.3561,81.1,78,70,10.07
293,293,Neiafu,TO,2021-11-29 00:34:20,-18.65,-173.9833,83.08,61,20,12.66
294,294,Kunya,NG,2021-11-29 00:34:21,12.2233,8.5325,69.28,18,49,6.6
295,295,Mirnyy,RU,2021-11-29 00:34:21,62.5353,113.9611,-20.0,100,100,2.24
296,296,Lac Du Bonnet,CA,2021-11-29 00:34:21,50.2536,-96.0612,21.24,92,100,4.32
297,297,Kahului,US,2021-11-29 00:34:22,20.8947,-156.47,84.22,54,40,23.02
298,298,Olinda,BR,2021-11-29 00:34:22,-8.0089,-34.8553,82.13,74,40,8.05
299,299,Ilulissat,GL,2021-11-29 00:34:23,69.2167,-51.1,23.02,54,100,2.3
300,300,Palu,ID,2021-11-29 00:34:23,-0.8917,119.8707,78.26,93,100,2.62
301,301,Tynda,RU,2021-11-29 00:34:23,55.1667,124.7167,-5.8,88,95,1.45
302,302,Kamaishi,JP,2021-11-29 00:34:24,39.2667,141.8833,32.95,56,84,7.05
303,303,Nanortalik,GL,2021-11-29 00:34:24,60.1432,-45.2371,38.93,97,100,11.63
304,304,Cedar City,US,2021-11-29 00:34:24,37.6775,-113.0619,54.57,28,1,3.44
305,305,Asmara,ER,2021-11-29 00:34:25,15.3333,38.9333,51.69,92,73,6.82
306,306,Kostomuksha,RU,2021-11-29 00:34:25,64.571,30.5767,4.69,98,99,0.78
307,307,Beloha,MG,2021-11-29 00:34:25,-25.1667,45.05,63.63,68,0,13.2
308,308,Hurghada,EG,2021-11-29 00:34:26,27.2574,33.8129,74.75,28,7,10.98
309,309,Sola,VU,2021-11-29 00:34:26,-13.8833,167.55,83.07,84,90,0.0
310,310,Sokone,SN,2021-11-29 00:34:27,13.8833,-16.3667,82.29,24,100,14.56
311,311,Leningradskiy,RU,2021-11-29 00:34:27,69.3833,178.4167,-20.47,94,67,11.83
312,312,Weihe,CN,2021-11-29 00:34:27,32.9952,105.3247,34.95,58,97,8.72
313,313,Ahuimanu,US,2021-11-29 00:34:28,21.4447,-157.8378,83.91,58,75,14.97
314,314,Isangel,VU,2021-11-29 00:34:28,-19.55,169.2667,83.68,69,52,8.46
315,315,Uporovo,RU,2021-11-29 00:32:09,56.3109,66.2693,21.24,75,96,11.12
316,316,Shankargarh,IN,2021-11-29 00:34:28,25.1833,81.6167,59.16,50,20,2.53
317,317,Lar,IN,2021-11-29 00:34:29,26.2039,83.9717,62.24,57,50,3.74
318,318,Gat,IL,2021-11-29 00:34:29,31.61,34.7642,57.88,34,29,2.75
319,319,Tubuala,PA,2021-11-29 00:34:30,9.5167,-79.0333,78.91,84,100,9.37
320,320,Yabelo,ET,2021-11-29 00:34:30,4.8833,38.0833,57.27,82,6,7.7
321,321,Longhua,CN,2021-11-29 00:34:30,23.6137,114.1919,66.65,57,0,3.71
322,322,Tautira,PF,2021-11-29 00:34:31,-17.7333,-149.15,82.42,80,74,17.72
323,323,Mandalgovi,MN,2021-11-29 00:34:31,45.7625,106.2708,16.29,87,100,12.57
324,324,Ishigaki,JP,2021-11-29 00:34:31,24.3448,124.1572,71.73,83,75,17.27
325,325,Dali,CN,2021-11-29 00:35:32,25.7,100.1833,47.41,69,11,1.1
326,326,Ponta Delgada,PT,2021-11-29 00:35:32,37.7333,-25.6667,59.72,77,75,8.05
327,327,Maceio,BR,2021-11-29 00:33:53,-9.6658,-35.7353,81.84,78,40,3.44
328,328,Sitka,US,2021-11-29 00:35:32,57.0531,-135.33,33.69,80,75,16.11
329,329,College,US,2021-11-29 00:35:33,64.8569,-147.8028,-20.54,68,40,0.0
330,330,Longyearbyen,SJ,2021-11-29 00:35:33,78.2186,15.6401,10.24,61,75,21.85
331,331,Clyde River,CA,2021-11-29 00:35:34,70.4692,-68.5914,-3.77,77,89,21.85
332,332,Pringsewu,ID,2021-11-29 00:35:34,-5.3582,104.9744,73.53,95,100,3.78
333,333,Yumen,CN,2021-11-29 00:31:44,40.2833,97.2,21.29,37,0,12.37
334,334,Rosarito,MX,2021-11-29 00:33:57,32.3333,-117.0333,79.23,64,0,6.76
335,335,Nampa,US,2021-11-29 00:33:42,43.5407,-116.5635,49.39,76,1,0.0
336,336,Touros,BR,2021-11-29 00:35:35,-5.1989,-35.4608,83.3,78,51,11.12
337,337,Harper,LR,2021-11-29 00:31:40,4.375,-7.7169,78.94,83,7,6.98
338,338,Sorong,ID,2021-11-29 00:35:35,-0.8833,131.25,83.57,73,99,5.93
339,339,Kihurio,TZ,2021-11-29 00:35:36,-4.4667,38.0667,70.54,93,37,3.33
340,340,Palaikastron,GR,2021-11-29 00:35:36,35.2,26.25,69.3,75,100,18.32
341,341,Labuan,MY,2021-11-29 00:35:36,5.2767,115.2417,79.16,89,20,2.3
342,342,Matara,LK,2021-11-29 00:35:37,5.9485,80.5353,75.69,90,100,2.13
343,343,Ankara,TR,2021-11-29 00:32:40,39.9199,32.8543,42.19,93,0,0.0
344,344,Gorontalo,ID,2021-11-29 00:35:37,0.5412,123.0595,75.47,97,100,3.76
345,345,Negotin,RS,2021-11-29 00:35:37,44.2264,22.5308,49.26,90,99,2.75
346,346,Bukama,CD,2021-11-29 00:35:38,-9.2,25.85,68.18,95,40,3.24
347,347,Payo,ID,2021-11-29 00:35:38,-3.7508,103.6372,79.63,71,65,1.1
348,348,Svetlyy,RU,2021-11-29 00:35:38,54.675,20.1347,33.85,99,100,8.55
349,349,Ucluelet,CA,2021-11-29 00:35:39,48.9329,-125.5528,52.11,97,100,8.59
350,350,Namie,JP,2021-11-29 00:35:39,37.4833,141.0,43.34,46,100,5.12
351,351,Timaru,NZ,2021-11-29 00:35:40,-44.4,171.25,63.73,71,14,7.92
352,352,Pangnirtung,CA,2021-11-29 00:35:40,66.1451,-65.7125,12.78,72,100,9.93
353,353,Amga,RU,2021-11-29 00:35:40,60.8953,131.9608,-2.47,95,100,5.08
354,354,Lima,PE,2021-11-29 00:35:11,-12.0432,-77.0282,64.65,77,40,11.5
355,355,Acarau,BR,2021-11-29 00:35:41,-2.8856,-40.12,80.69,79,87,15.12
356,356,Cam Ranh,VN,2021-11-29 00:35:41,11.9214,109.1591,73.36,100,75,5.75
357,357,Prince Rupert,CA,2021-11-29 00:35:16,54.3161,-130.3201,42.49,65,90,6.91
358,358,Wum,CM,2021-11-29 00:35:42,6.3833,10.0667,64.62,54,100,4.03
359,359,Ambulu,ID,2021-11-29 00:35:42,-8.345,113.6058,75.78,84,98,3.58
360,360,Saint-Georges,GD,2021-11-29 00:35:42,12.0564,-61.7485,82.08,78,20,16.11
361,361,East London,ZA,2021-11-29 00:35:43,-33.0153,27.9116,66.13,76,2,7.4
362,362,West Bay,KY,2021-11-29 00:35:43,19.3667,-81.4167,78.87,69,40,8.05
363,363,Klaksvik,FO,2021-11-29 00:35:43,62.2266,-6.589,34.72,88,100,7.61
364,364,Stokmarknes,NO,2021-11-29 00:35:44,68.5646,14.9108,28.94,72,100,7.47
365,365,Atambua,ID,2021-11-29 00:35:44,-9.1061,124.8925,81.95,65,100,1.54
366,366,Fortuna,US,2021-11-29 00:35:45,40.5982,-124.1573,54.52,94,90,0.0
367,367,Paamiut,GL,2021-11-29 00:35:45,61.994,-49.6678,37.42,85,100,22.79
368,368,Springbok,ZA,2021-11-29 00:35:45,-29.6643,17.8865,54.36,87,0,1.21
369,369,Hamilton,US,2021-11-29 00:35:46,39.1834,-84.5333,36.84,53,1,16.11
370,370,Raga,SS,2021-11-29 00:35:46,8.4596,25.678,81.37,26,100,7.2
371,371,Palmer,US,2021-11-29 00:34:18,42.1584,-72.3287,34.41,74,90,3.44
372,372,Qui Nhon,VN,2021-11-29 00:36:46,13.7667,109.2333,77.18,91,100,10.18
373,373,Pavilosta,LV,2021-11-29 00:36:47,56.8879,21.1859,33.71,90,100,9.98
374,374,Nau,TJ,2021-11-29 00:36:47,40.1525,69.3686,37.99,36,28,10.33
375,375,Smolensk,RU,2021-11-29 00:33:19,55.0,33.0,35.91,95,100,9.8
376,376,Bathsheba,BB,2021-11-29 00:36:48,13.2167,-59.5167,81.21,78,20,13.8
377,377,Jeremie,HT,2021-11-29 00:36:48,18.65,-74.1167,77.83,79,17,2.98
378,378,Gisborne,NZ,2021-11-29 00:36:48,-38.6533,178.0042,70.07,68,27,9.91
379,379,Nome,US,2021-11-29 00:36:49,64.5011,-165.4064,-19.97,98,17,4.74
380,380,Guiyang,CN,2021-11-29 00:36:49,26.5833,106.7167,46.89,93,90,4.47
381,381,Altay,CN,2021-11-29 00:36:49,47.8667,88.1167,16.3,63,0,6.87
382,382,Chongwe,ZM,2021-11-29 00:36:50,-15.3292,28.682,62.92,52,7,3.49
383,383,Port Macquarie,AU,2021-11-29 00:36:02,-31.4333,152.9167,71.56,74,85,5.73
384,384,Kamina,CD,2021-11-29 00:36:50,-8.7386,24.9906,62.55,97,98,2.62
385,385,Sinegorskiy,RU,2021-11-29 00:36:50,48.0139,40.8447,44.42,91,100,14.45
386,386,Chingirlau,KZ,2021-11-29 00:36:51,51.095,54.0814,29.05,74,100,5.23
387,387,Nadym,RU,2021-11-29 00:36:51,65.5333,72.5167,-1.05,91,100,13.96
388,388,Mahebourg,MU,2021-11-29 00:31:54,-20.4081,57.7,71.89,88,40,4.61
389,389,Ginir,ET,2021-11-29 00:36:51,7.1333,40.7,55.87,79,5,3.89
390,390,Porto Novo,BJ,2021-11-29 00:36:52,6.4965,2.6036,84.02,84,76,4.61
391,391,Treinta Y Tres,UY,2021-11-29 00:36:52,-33.2333,-54.3833,64.38,96,100,4.92
392,392,Lensk,RU,2021-11-29 00:36:52,60.7253,114.9278,3.9,98,100,2.8
393,393,Ilinskoye-Khovanskoye,RU,2021-11-29 00:36:53,56.9718,39.7684,33.13,95,100,4.29
394,394,Piney Green,US,2021-11-29 00:36:53,34.716,-77.3202,55.29,58,1,3.44
395,395,Tashtagol,RU,2021-11-29 00:36:54,52.7657,87.8894,15.42,88,100,1.21
396,396,Mumford,GH,2021-11-29 00:36:54,5.2618,-0.759,80.47,83,74,8.88
397,397,Washington,US,2021-11-29 00:33:35,47.5001,-120.5015,57.69,86,100,4.32
398,398,Constitucion,CL,2021-11-29 00:35:39,-35.3333,-72.4167,54.45,76,0,16.78
399,399,Padang,ID,2021-11-29 00:36:55,-0.9492,100.3543,78.85,77,100,1.63
400,400,Aksarka,RU,2021-11-29 00:33:15,66.5606,67.7975,4.05,96,100,7.85
401,401,Ribeira Brava,PT,2021-11-29 00:36:55,32.65,-17.0667,63.23,75,4,8.57
402,402,Kununurra,AU,2021-11-29 00:36:10,-15.7667,128.7333,91.38,52,100,3.44
403,403,Kushmurun,KZ,2021-11-29 00:36:56,52.4503,64.6311,8.4,89,100,4.32
404,404,Taldan,RU,2021-11-29 00:33:14,53.6667,124.8,3.87,66,80,2.33
405,405,Riyadh,SA,2021-11-29 00:34:41,24.6877,46.7219,57.34,36,0,6.42
406,406,Sao Joao Da Barra,BR,2021-11-29 00:34:47,-21.6403,-41.0511,72.95,89,7,2.59
407,407,Lenger,KZ,2021-11-29 00:36:56,42.183,69.8839,27.84,27,100,5.08
408,408,Itarema,BR,2021-11-29 00:36:57,-2.9248,-39.9167,80.58,78,71,14.54
409,409,Walvis Bay,,2021-11-29 00:33:00,-22.9575,14.5053,58.15,94,0,3.44
410,410,Saint-Pierre,RE,2021-11-29 00:36:57,-21.3393,55.4781,74.88,83,40,3.44
411,411,Pingxiang,CN,2021-11-29 00:36:58,27.6167,113.85,58.42,75,6,1.54
412,412,Guadalupe,MX,2021-11-29 00:36:58,25.6833,-100.25,71.65,52,75,0.0
413,413,Pangoa,PE,2021-11-29 00:36:59,-12.1167,-73.0,68.16,98,100,2.57
414,414,Aukra,NO,2021-11-29 00:36:59,62.7925,6.919,28.38,92,100,10.36
415,415,Santa Fe,AR,2021-11-29 00:38:00,-31.6333,-60.7,65.1,62,0,8.9
416,416,Vardo,NO,2021-11-29 00:38:00,70.3705,31.1107,12.4,78,100,21.43
417,417,Juneau,US,2021-11-29 00:35:19,58.3019,-134.4197,32.0,74,75,12.66
418,418,Santa Cruz,BO,2021-11-29 00:33:01,-17.8,-63.1667,72.86,94,75,5.75
419,419,Banjar,ID,2021-11-29 00:38:01,-8.19,114.9675,78.66,93,100,0.47
420,420,Nantucket,US,2021-11-29 00:38:01,41.2835,-70.0995,42.91,81,90,5.75
421,421,Houma,US,2021-11-29 00:38:01,29.5958,-90.7195,62.6,76,1,0.0
422,422,Gibara,CU,2021-11-29 00:38:02,21.1097,-76.1317,74.52,79,28,7.14
423,423,Sibolga,ID,2021-11-29 00:38:02,1.7427,98.7792,77.68,83,72,1.61
424,424,Uige,AO,2021-11-29 00:38:03,-7.6087,15.0613,66.31,97,100,2.48
425,425,Mareeba,AU,2021-11-29 00:38:03,-17.0,145.4333,79.52,46,14,8.28
426,426,Tabuk,PH,2021-11-29 00:38:03,17.4189,121.4443,79.45,78,82,3.67
427,427,Adrar,MR,2021-11-29 00:38:04,20.5022,-10.0711,58.6,43,99,10.16
428,428,Matamoros,MX,2021-11-29 00:38:04,25.5333,-103.25,68.11,34,75,6.91
429,429,Galesong,ID,2021-11-29 00:38:05,-5.3166,119.3661,80.62,78,100,9.71
430,430,Akom,CM,2021-11-29 00:38:05,2.6678,12.7109,67.86,79,100,2.37
431,431,Oussouye,SN,2021-11-29 00:38:06,12.485,-16.5469,78.89,48,86,5.77
432,432,Los Llanos De Aridane,ES,2021-11-29 00:38:06,28.6585,-17.9182,62.35,72,90,14.97
433,433,Nunoa,PE,2021-11-29 00:38:06,-14.48,-70.6411,44.83,81,86,7.4
434,434,Deputatskiy,RU,2021-11-29 00:38:07,69.3,139.9,-12.53,96,100,4.88
435,435,Yamethin,MM,2021-11-29 00:38:07,20.4333,96.15,69.19,82,76,4.09
436,436,Pevek,RU,2021-11-29 00:38:07,69.7008,170.3133,2.44,95,100,1.7
437,437,Mangan,IN,2021-11-29 00:38:08,27.5167,88.5333,56.7,49,1,6.02
438,438,Krasnorechenskiy,RU,2021-11-29 00:38:08,44.6265,135.3532,34.97,85,40,10.22
439,439,Zemio,CF,2021-11-29 00:38:08,5.0314,25.1361,71.37,82,96,3.33
440,440,Oranjemund,,2021-11-29 00:38:09,-28.55,16.4333,60.64,93,4,3.11
441,441,Mayor Pablo Lagerenza,PY,2021-11-29 00:38:09,-19.9309,-60.7718,71.11,91,100,8.25
442,442,Santa Rosa De Lima,SV,2021-11-29 00:38:10,13.6247,-87.8936,82.4,56,0,4.34
443,443,Kailua,US,2021-11-29 00:38:10,21.4022,-157.7394,84.18,61,75,14.97
444,444,Srivardhan,IN,2021-11-29 00:38:10,18.0333,73.0167,72.66,56,100,7.72
445,445,Kyra,RU,2021-11-29 00:38:11,49.5776,111.9753,6.94,86,98,3.42
446,446,Tungor,RU,2021-11-29 00:38:11,53.3808,142.9564,22.68,68,100,10.11
447,447,Egvekinot,RU,2021-11-29 00:38:11,66.3167,-179.1667,-4.27,94,100,1.86
448,448,La Ronge,CA,2021-11-29 00:38:12,55.1001,-105.2842,25.05,68,90,11.5
449,449,La Asuncion,VE,2021-11-29 00:38:12,11.0333,-63.8628,89.33,70,82,11.5
450,450,Trojes,AL,2021-11-29 00:38:13,41.756,19.962,52.29,89,100,10.36
451,451,Necocli,CO,2021-11-29 00:38:13,8.4234,-76.786,77.83,88,98,3.96
452,452,Zhuhai,CN,2021-11-29 00:39:14,22.2769,113.5678,69.58,73,0,14.97
453,453,Laguna,US,2021-11-29 00:36:12,38.421,-121.4238,68.5,59,1,4.61
454,454,Okha,RU,2021-11-29 00:39:14,53.5739,142.9478,22.84,64,100,11.83
455,455,Wanaka,NZ,2021-11-29 00:37:54,-44.7,169.15,73.09,36,0,3.24
456,456,Dauphin,CA,2021-11-29 00:39:14,51.1494,-100.0502,24.94,74,90,14.97
457,457,Benjamin Constant,BR,2021-11-29 00:39:15,-4.3831,-70.0311,80.73,88,98,2.17
458,458,Telde,ES,2021-11-29 00:36:08,27.9924,-15.4192,62.82,72,75,16.11
459,459,Ankazoabo,MG,2021-11-29 00:39:15,-22.2833,44.5167,65.03,69,2,3.4
460,460,Awjilah,LY,2021-11-29 00:39:16,29.1081,21.2869,74.7,21,96,14.52
461,461,La Rioja,ES,2021-11-29 00:39:16,42.25,-2.5,35.38,98,100,14.88
462,462,Abu Dhabi,AE,2021-11-29 00:35:15,24.4667,54.3667,75.22,60,40,6.91
463,463,High Rock,BS,2021-11-29 00:39:17,26.6208,-78.2833,69.82,65,78,7.34
464,464,Hirara,JP,2021-11-29 00:39:17,24.8,125.2833,71.87,88,75,17.27
465,465,Jinka,ET,2021-11-29 00:39:18,5.65,36.65,63.68,71,3,3.09
466,466,Zhangjiakou,CN,2021-11-29 00:38:01,40.81,114.8794,30.45,57,100,5.73
467,467,Kyren,RU,2021-11-29 00:39:18,51.6828,102.1408,8.91,81,60,2.55
468,468,Inza,RU,2021-11-29 00:39:19,53.8533,46.3586,35.08,100,100,6.24
469,469,Kokopo,PG,2021-11-29 00:39:19,-4.352,152.2633,83.32,73,100,4.74
470,470,Lososina,RU,2021-11-29 00:39:19,48.9975,140.3106,29.37,71,100,3.22
471,471,Fort Nelson,CA,2021-11-29 00:36:40,58.8053,-122.7002,-2.61,78,40,4.61
472,472,Cairns,AU,2021-11-29 00:39:20,-16.9167,145.7667,84.15,74,40,9.22
473,473,Meulaboh,ID,2021-11-29 00:39:20,4.1363,96.1285,75.74,88,100,3.04
474,474,Alta Floresta,BR,2021-11-29 00:39:20,-9.8756,-56.0861,73.96,91,100,2.46
475,475,Nikolayevka,RU,2021-11-29 00:39:21,53.1257,47.2041,34.92,99,100,4.68
476,476,Kushima,JP,2021-11-29 00:39:21,31.4583,131.2333,51.31,59,65,5.03
477,477,Neverkino,RU,2021-11-29 00:39:22,52.7854,46.7417,33.98,100,100,6.69
478,478,Malaya Serdoba,RU,2021-11-29 00:39:22,52.4661,44.9512,35.78,100,100,7.76
479,479,Capanema,BR,2021-11-29 00:39:22,-1.1958,-47.1808,75.63,88,14,3.4
480,480,Chapais,CA,2021-11-29 00:39:23,49.7834,-74.8492,10.18,98,87,2.71
481,481,Baruun-Urt,MN,2021-11-29 00:39:23,46.6806,113.2792,11.68,95,71,8.05
482,482,Santa Cruz De La Palma,ES,2021-11-29 00:39:23,28.6835,-17.7642,66.34,72,90,14.97
483,483,Sandy Bay,AU,2021-11-29 00:39:24,-42.913,147.3532,64.29,63,20,10.36
484,484,Saint George,US,2021-11-29 00:37:01,37.1041,-113.5841,70.27,19,1,0.0
485,485,Boffa,GN,2021-11-29 00:39:24,10.1667,-14.0333,78.49,89,85,1.43
486,486,Medea,DZ,2021-11-29 00:39:25,36.2642,2.7539,38.26,77,45,11.54
487,487,Shirgaon,IN,2021-11-29 00:39:18,19.7,72.7,73.67,47,100,5.97
488,488,Kihei,US,2021-11-29 00:39:25,20.785,-156.4656,84.22,54,40,23.02
489,489,Peleduy,RU,2021-11-29 00:39:26,59.6289,112.7406,9.3,96,100,5.48
490,490,Dubbo,AU,2021-11-29 00:39:26,-32.25,148.6167,62.73,77,90,12.66
491,491,Kiyasovo,RU,2021-11-29 00:39:26,56.3491,53.1244,30.7,96,100,11.21
492,492,Jawhar,SO,2021-11-29 00:39:27,2.7809,45.5005,73.98,90,4,4.14
493,493,Dhidhdhoo,MV,2021-11-29 00:38:26,6.8833,73.1,80.29,79,94,9.15
494,494,Oksovskiy,RU,2021-11-29 00:40:27,62.6062,39.8984,8.96,93,100,5.23
495,495,Lompoc,US,2021-11-29 00:40:27,34.6391,-120.4579,77.14,47,1,9.22
496,496,Micheweni,TZ,2021-11-29 00:40:28,-4.9667,39.8333,78.91,77,11,2.28
497,497,Waitati,NZ,2021-11-29 00:40:28,-45.75,170.5667,68.92,45,11,4.7
498,498,Vilyuysk,RU,2021-11-29 00:40:29,63.7553,121.6247,-21.68,100,78,3.09
499,499,Cap Malheureux,MU,2021-11-29 00:40:29,-19.9842,57.6142,72.09,68,2,7.85
500,500,Borgo San Lorenzo,IT,2021-11-29 00:40:29,43.9553,11.3835,35.6,91,100,2.77
501,501,Pacific Grove,US,2021-11-29 00:38:30,36.6177,-121.9166,70.0,48,1,0.0
502,502,Lengshuitan,CN,2021-11-29 00:40:30,26.4111,111.5956,56.53,63,63,3.24
503,503,Soyo,AO,2021-11-29 00:40:30,-6.1349,12.3689,78.21,89,100,6.15
504,504,Tucuman,AR,2021-11-29 00:40:30,-26.8241,-65.2226,77.0,57,75,2.3
505,505,Clinton,US,2021-11-29 00:39:45,42.587,-82.9199,35.62,100,90,12.66
506,506,Pestravka,RU,2021-11-29 00:40:31,52.405,49.9583,33.57,95,100,7.74
507,507,Luangwa,ZM,2021-11-29 00:40:31,-15.6167,30.4167,68.9,67,5,1.68
508,508,Tumpat,MY,2021-11-29 00:40:32,6.1978,102.171,73.45,100,40,0.0
509,509,Rafaela,AR,2021-11-29 00:40:12,-31.2503,-61.4867,63.45,68,0,6.49
510,510,Keningau,MY,2021-11-29 00:40:32,5.3378,116.1602,75.65,85,100,1.92
511,511,Teya,RU,2021-11-29 00:38:30,60.3778,92.6267,2.64,96,90,4.9
512,512,Bogotol,RU,2021-11-29 00:40:33,56.2078,89.5342,17.62,90,100,13.76
513,513,Abnub,EG,2021-11-29 00:40:33,27.2696,31.1511,69.57,22,4,4.27
514,514,Atar,MR,2021-11-29 00:40:25,20.5169,-13.0499,62.91,41,100,10.58
515,515,Mukono,UG,2021-11-29 00:40:34,0.3533,32.7553,62.53,96,69,0.49
516,516,Sorland,NO,2021-11-29 00:37:25,67.667,12.6934,34.38,42,100,16.96
517,517,Obera,AR,2021-11-29 00:40:34,-27.4871,-55.1199,66.18,98,100,3.18
518,518,Kalengwa,ZM,2021-11-29 00:40:34,-13.4659,25.0027,60.93,93,40,2.08
519,519,Preston,GB,2021-11-29 00:40:35,53.7667,-2.7167,30.18,89,87,4.23
520,520,Nueva Loja,EC,2021-11-29 00:40:35,0.0847,-76.8828,73.38,93,100,1.5
521,521,Energetik,RU,2021-11-29 00:40:36,51.7445,58.7934,18.18,92,100,1.9
522,522,Maniitsoq,GL,2021-11-29 00:40:36,65.4167,-52.9,35.55,94,100,27.83
523,523,Marawi,PH,2021-11-29 00:40:36,7.9986,124.2928,78.03,72,19,2.51
524,524,Severomuysk,RU,2021-11-29 00:40:37,56.1481,113.4267,-5.4,98,100,3.36
525,525,Vila Franca Do Campo,PT,2021-11-29 00:40:37,37.7167,-25.4333,59.41,64,86,3.44
526,526,Aranda De Duero,ES,2021-11-29 00:40:37,41.6704,-3.6892,42.21,93,100,22.37
527,527,Huilong,CN,2021-11-29 00:40:38,31.8111,121.655,59.56,87,81,6.8
528,528,Carbonia,IT,2021-11-29 00:40:38,39.1672,8.5222,43.45,80,99,9.37
529,529,Toba,JP,2021-11-29 00:40:38,34.4833,136.85,46.4,59,7,6.22
530,530,Aleksandrov Gay,RU,2021-11-29 00:40:39,50.147,48.5704,36.21,83,71,8.43
531,531,Jardim,BR,2021-11-29 00:40:39,-21.4803,-56.1381,72.88,97,100,5.73
532,532,Kollam,IN,2021-11-29 00:40:39,8.8833,76.6,75.07,90,100,8.08
533,533,Great Yarmouth,GB,2021-11-29 00:37:17,52.6083,1.7305,35.85,69,38,15.14
534,534,Bethanien,,2021-11-29 00:40:40,-26.502,17.1583,63.86,41,6,1.99
535,535,Itoman,JP,2021-11-29 00:40:40,26.1247,127.6694,68.77,90,75,10.36
536,536,Hay River,CA,2021-11-29 00:40:40,60.8156,-115.7999,4.98,72,75,14.97
537,537,Vostok,RU,2021-11-29 00:40:41,46.4856,135.8833,28.13,94,99,6.26
